City_ID,City_Name,State_Name,State_ID,County_Name,County_FIPS,Latitude,Longitude,Population_August_13_2021,Density_August_13_2021,Zips,State annual CO2 equivalent total output emission rate (lb/MWh) 2020,State annual total nonrenewables net generation (MWh) 2020,State annual total renewables net generation (MWh) 2020,Frequent Physical Distress in 2018 (Percent),alltransit_performance_score,AirQuality2020
1840034016,New York,New York,NY,New York,36061,40.6943,-73.9249,18713220,10715,11229 11226 11225 11224 11222 11221 11220 11385 10169 10168 10167 10165 10162 10282 10280 10040 10044 11109 11104 11105 11379 11378 11377 11697 11694 11692 11693 11691 10271 10279 10278 10075 10302 10301 10452 11451 10475 10474 10471 10470 10473 10472 11228 11223 10103 11368 11369 11366 11367 11364 11365 11362 11363 11360 11361 10028 10029 10026 10027 10024 10025 10022 10023 10020 10021 11212 11213 11210 11211 11216 11217 11214 11215 11218 11219 10152 10153 10154 10307 10306 10305 11429 10310 10311 10312 10314 11432 11433 11430 11436 11434 11435 10453 10451 10457 10456 10455 10454 10459 10458 10128 10004 10005 10006 10007 10001 10002 10003 10009 11238 11239 11230 11231 11232 11233 11234 11235 11236 11237 11375 11374 11371 11370 11373 11372 10170 10171 10172 10173 10174 10177 11351 10039 10038 10035 10034 10037 10036 10031 10030 10033 10032 11201 11208 11203 11205 11204 11207 11206 11209 11411 11412 11413 11414 11415 11416 11417 11418 11419 11101 11102 11103 11106 11001 11005 11004 10065 10069 10199 10309 10308 10304 10303 11428 11421 11420 11423 11422 11425 11424 11427 11426 10466 10467 10464 10465 10462 10463 10460 10461 10468 10469 10119 10115 10112 10110 10111 11359 11358 11357 11356 11355 11354 10019 10018 10013 10012 10011 10010 10017 10016 10014 10008 10041 10043 10055 10060 10080 10081 10087 10090 10101 10102 10104 10105 10106 10107 10108 10109 10113 10114 10116 10117 10118 10120 10121 10122 10123 10124 10125 10126 10129 10130 10131 10132 10133 10138 10150 10151 10155 10156 10157 10158 10159 10160 10163 10164 10166 10175 10176 10178 10179 10185 10203 10211 10212 10213 10242 10249 10256 10258 10259 10260 10261 10265 10268 10269 10270 10272 10273 10274 10275 10276 10277 10281 10285 10286 10313 11120 11202 11241 11242 11243 11245 11247 11249 11251 11252 11256 11352 11380 11381 11386 11405 11431 11437 11439 11499 11690 11695,416.695,91870655,37541300,12.1,9.6,6.9
1840020491,Los Angeles,California,CA,Los Angeles,6037,34.1139,-118.4068,12750807,3276,90291 90293 90292 91316 91311 90037 90031 90008 90004 90005 90006 90007 90001 90002 90003 90710 90089 91344 91345 91340 91342 91343 90035 90034 90036 90033 90032 90039 90247 90248 91436 91371 91605 91604 91607 91601 91602 90402 90068 90069 90062 90063 90061 90066 90067 90064 90065 91326 91324 91325 90013 90012 90011 90010 90017 90016 90015 90014 90019 90090 90095 90094 91042 91040 91411 91352 91356 90041 90042 90043 90044 90045 90046 90047 90048 90049 90018 91423 90210 91303 91304 91306 91307 90079 90071 90077 90059 91608 91606 91331 91330 91335 90026 90027 90024 90025 90023 90020 90021 90028 90029 90272 90732 90731 90230 91406 91405 91403 91402 91401 91367 91364 90038 90057 90058 90744 90501 90502 90009 90030 90050 90051 90053 90054 90055 90060 90070 90072 90074 90075 90076 90078 90080 90081 90082 90083 90084 90086 90087 90088 90093 90099 90134 90189 90213 90294 90295 90296 90733 90734 90748 91041 91043 91305 91308 91309 91313 91327 91328 91329 91333 91334 91337 91346 91353 91357 91365 91392 91393 91394 91395 91396 91404 91407 91408 91409 91410 91412 91413 91416 91426 91470 91482 91495 91496 91499 91603 91609 91610 91611 91612 91614 91615 91616 91617 91618,453.118,110674673,82279482,13.3,7.7,12
1840000494,Chicago,Illinois,IL,Cook,17031,41.8373,-87.6862,8604203,4574,60018 60649 60641 60640 60643 60642 60645 60644 60647 60646 60616 60617 60614 60615 60612 60613 60610 60611 60618 60619 60827 60638 60639 60634 60636 60637 60630 60631 60632 60633 60605 60604 60607 60606 60601 60603 60602 60609 60608 60106 60661 60660 60659 60652 60653 60651 60656 60657 60654 60655 60623 60622 60621 60620 60626 60625 60624 60629 60628 60707 60499 60664 60666 60668 60669 60670 60673 60674 60675 60677 60678 60680 60681 60684 60685 60686 60687 60688 60689 60690 60694 60695 60696 60699,556.444,156507019,16830687,12,9.1,8.1
1840015149,Miami,Florida,FL,Miami-Dade,12086,25.7839,-80.2102,6445545,5019,33129 33125 33126 33127 33128 33149 33144 33145 33142 33139 33138 33137 33136 33135 33134 33133 33132 33131 33130 33150 33101 33109 33111 33151 33222 33231 33233 33238 33255 33299,842.169,238451609,12328825,16.1,8.5,7
1840019440,Dallas,Texas,TX,Dallas,48113,32.7936,-96.7662,5743938,1526,75287 75098 75233 75254 75251 75252 75253 75032 75238 75232 75230 75231 75236 75237 75234 75235 75088 75087 75243 75246 75244 75249 75248 75051 75166 75210 75211 75212 75214 75215 75216 75217 75218 75219 75390 75182 75229 75228 75220 75223 75225 75224 75227 75226 75241 75240 75247 75270 75043 75207 75206 75205 75204 75203 75202 75201 75209 75208 75019 75221 75222 75242 75250 75260 75262 75263 75264 75266 75267 75277 75283 75284 75285 75301 75303 75312 75313 75315 75320 75336 75339 75342 75354 75355 75356 75357 75358 75359 75360 75367 75370 75371 75372 75373 75374 75376 75378 75379 75380 75382 75389 75392 75393 75394 75395 75397 75398,857.519,369966928,103399309,13.2,6.8,8.9
1840000673,Philadelphia,Pennsylvania,PA,Philadelphia,42101,40.0077,-75.1339,5649300,4554,19154 19151 19150 19153 19152 19102 19103 19106 19107 19104 19109 19128 19129 19120 19121 19122 19123 19124 19125 19126 19127 19112 19111 19115 19114 19116 19119 19118 19148 19149 19146 19147 19144 19145 19142 19143 19140 19141 19139 19138 19137 19136 19135 19134 19133 19132 19131 19130 19019 19092 19093 19099 19101 19105 19108 19110 19155 19160 19161 19162 19170 19171 19172 19173 19175 19176 19177 19178 19179 19181 19182 19183 19184 19185 19187 19188 19190 19191 19192 19193 19194 19195 19196 19197 19244 19255,697.527,221360618,8774335,14.8,9,7.4
1840020925,Houston,Texas,TX,Harris,48201,29.7863,-95.3889,5464251,1399,77069 77068 77061 77060 77063 77062 77065 77064 77067 77066 77036 77037 77034 77035 77032 77033 77030 77031 77038 77449 77489 77046 77045 77044 77040 77048 77201 77598 77018 77019 77015 77016 77017 77010 77011 77012 77013 77091 77093 77099 77053 77346 77345 77546 77547 77025 77024 77027 77026 77021 77020 77023 77022 77029 77028 77094 77096 77090 77098 77078 77079 77072 77073 77070 77071 77076 77077 77074 77075 77407 77047 77043 77041 77336 77339 77338 77003 77002 77007 77006 77005 77004 77009 77008 77571 77450 77082 77089 77088 77083 77081 77080 77087 77086 77085 77084 77092 77042 77054 77055 77056 77057 77058 77059 77396 77051 77506 77504 77001 77052 77202 77203 77204 77205 77206 77207 77208 77209 77210 77212 77213 77215 77216 77217 77218 77219 77220 77221 77222 77223 77225 77226 77227 77228 77229 77230 77231 77233 77234 77235 77236 77237 77241 77242 77243 77244 77245 77248 77249 77251 77252 77253 77254 77255 77256 77257 77259 77261 77262 77263 77266 77269 77270 77271 77272 77273 77274 77275 77282 77284 77287 77288 77289 77291 77292 77293 77297 77299 77315 77325 77411,857.519,369966928,103399309,13.3,5.9,10.1
1840013660,Atlanta,Georgia,GA,Fulton,13121,33.7627,-84.4224,5449398,1441,30334 30331 30332 30309 30308 30305 30307 30303 30354 30327 30322 30326 30324 30319 30342 30306 30318 30316 30317 30314 30315 30312 30313 30310 30311 30363 30301 30302 30304 30321 30325 30333 30343 30348 30353 30355 30357 30361 30368 30369 30370 30371 30375 30377 30392 30394 30398 31106 31107 31126 31139 31141 31193 31195 31196,723.513,105671813,13921563,11.1,8,8.2
1840006060,Washington,District of Columbia,DC,District of Columbia,11001,38.9047,-77.0163,5379184,4457,20010 20011 20012 20015 20228 20520 20307 20418 20319 20024 20510 20593 20020 20427 20540 20240 20245 20204 20202 20390 20006 20005 20004 20003 20002 20009 20008 20535 20317 20405 20057 20052 20053 20017 20018 20565 20566 20560 20260 20064 20551 20553 20019 20230 20373 20007 20032 20036 20037 20506 20001 20045 20016 20013 20022 20026 20027 20029 20030 20033 20035 20038 20039 20040 20042 20043 20044 20047 20049 20050 20055 20056 20058 20059 20060 20061 20062 20063 20065 20066 20067 20068 20069 20070 20071 20073 20074 20075 20076 20077 20078 20080 20081 20082 20090 20091 20201 20203 20206 20207 20208 20210 20211 20212 20213 20214 20215 20216 20217 20218 20219 20220 20221 20222 20223 20224 20226 20227 20229 20232 20233 20235 20237 20238 20239 20241 20242 20244 20250 20251 20252 20254 20261 20262 20265 20266 20268 20270 20277 20289 20299 20301 20303 20306 20310 20314 20318 20330 20340 20350 20355 20370 20372 20374 20375 20376 20380 20388 20389 20391 20392 20393 20394 20395 20398 20401 20402 20403 20404 20406 20407 20408 20410 20411 20412 20413 20414 20415 20416 20417 20419 20420 20421 20422 20423 20424 20425 20426 20428 20429 20431 20433 20434 20435 20436 20437 20439 20440 20441 20442 20444 20447 20451 20453 20456 20460 20463 20468 20469 20470 20472 20500 20501 20502 20503 20504 20505 20507 20508 20509 20511 20515 20521 20522 20523 20524 20525 20526 20527 20528 20529 20530 20531 20533 20534 20536 20537 20538 20539 20541 20542 20543 20544 20546 20547 20548 20549 20552 20554 20555 20557 20559 20570 20571 20572 20573 20575 20576 20577 20578 20579 20580 20581 20585 20586 20590 20591 20594 20597 20599 56901 56902 56904 56908 56915 56920 56933 56935 56944 56945 56950 56965 56967 56972 56998 56999,801.121,106974,67547,9.1,9.3,6.3
1840000455,Boston,Massachusetts,MA,Suffolk,25025,42.3188,-71.0846,4688346,5532,02120 02121 02122 02124 02125 02126 02127 02128 02129 02467 02210 02215 02119 02118 02111 02110 02113 02115 02114 02116 02199 02134 02136 02135 02132 02131 02130 02203 02163 02152 02108 02109 02112 02117 02123 02133 02137 02196 02201 02205 02206 02211 02212 02217 02222 02241 02283 02284 02293 02297 02298,879.901,14202265,3992900,11.1,9.3,5.9
1840020568,Phoenix,Arizona,AZ,Maricopa,4013,33.5722,-112.0891,4219697,1253,85008 85009 85006 85007 85004 85083 85086 85087 85085 85383 85033 85304 85306 85308 85020 85021 85022 85023 85024 85027 85028 85029 85353 85019 85018 85013 85012 85015 85014 85017 85016 85254 85003 85044 85045 85042 85043 85040 85041 85048 85054 85037 85035 85034 85032 85031 85307 85310 85051 85050 85053 85001 85002 85005 85010 85011 85026 85030 85036 85038 85046 85060 85061 85062 85063 85064 85065 85066 85067 85068 85069 85070 85071 85072 85073 85074 85075 85076 85078 85079 85080 85082,736.979,96114769,13190288,14.2,6.1,8.3
1840021117,Seattle,Washington,WA,King,53033,47.6211,-122.3244,3789215,3469,98109 98108 98104 98107 98106 98101 98103 98102 98105 98154 98122 98121 98126 98125 98178 98174 98177 98144 98146 98195 98199 98118 98119 98116 98117 98115 98112 98164 98134 98136 98133 98111 98113 98114 98124 98127 98129 98139 98141 98145 98161 98165 98170 98175 98181 98185 98191 98194,213.274,28922609,87156565,8.8,8.5,9.1
1840021543,San Francisco,California,CA,San Francisco,6075,37.7562,-122.443,3592294,7256,94130 94131 94132 94133 94134 94109 94108 94103 94102 94105 94104 94158 94127 94124 94123 94122 94121 94129 94118 94110 94112 94116 94117 94114 94115 94111 94107 94119 94120 94125 94126 94137 94139 94140 94141 94142 94143 94144 94145 94146 94147 94151 94159 94160 94161 94163 94164 94172 94177 94188,453.118,110674673,82279482,9.7,9.6,10.7
1840003971,Detroit,Michigan,MI,Wayne,26163,42.3834,-83.1024,3506126,1864,48209 48208 48201 48207 48205 48204 48203 48206 48227 48238 48239 48234 48235 48233 48202 48243 48214 48215 48216 48217 48210 48211 48212 48213 48219 48228 48224 48226 48221 48223 48231 48232 48244 48255 48260 48264 48266 48267 48268 48269 48272 48275 48277 48278 48279 48288,938.031,96709974,9914747,20.9,6.9,7.8
1840021990,San Diego,California,CA,San Diego,6073,32.8312,-117.1225,3220118,1686,92109 92108 92103 92111 92154 92110 92115 92140 92107 92106 92105 92104 92102 92071 92132 92130 92131 92134 92139 92025 92027 92147 92145 92014 92119 92117 92121 92120 92123 92122 92124 92127 92126 92129 92128 92101 92037 92173 92113 92114 92116 92038 92039 92072 92092 92093 92112 92137 92138 92142 92143 92149 92150 92152 92153 92158 92159 92160 92161 92163 92165 92166 92167 92168 92169 92170 92171 92172 92174 92175 92176 92177 92179 92182 92186 92187 92191 92192 92193 92195 92196 92197 92198 92199,453.118,110674673,82279482,11.5,6,10.7
1840007830,Minneapolis,Minnesota,MN,Hennepin,27053,44.9635,-93.2678,2977172,3071,55403 55409 55408 55407 55406 55405 55404 55402 55401 55430 55454 55455 55418 55419 55410 55411 55412 55413 55414 55415 55416 55417 55440 55458 55459 55467 55470 55472 55474 55478 55479 55480 55483 55484 55485 55486 55487 55488,770.366,40636378,15864248,9.7,8.3,7.3
1840015982,Tampa,Florida,FL,Hillsborough,12057,27.9942,-82.4451,2908063,1353,33637 33629 33621 33620 33619 33616 33613 33610 33617 33614 33611 33612 33605 33603 33647 33609 33604 33607 33606 33602 33608 33622 33623 33630 33631 33633 33646 33650 33655 33664 33672 33673 33674 33677 33679 33681 33684 33686 33689,842.169,238451609,12328825,13.9,5.3,7.9
1840018789,Denver,Colorado,CO,Denver,8031,39.7621,-104.8759,2876625,1831,80264 80230 80231 80236 80237 80235 80238 80239 80123 80249 80247 80246 80290 80293 80294 80218 80219 80210 80211 80212 80216 80221 80220 80223 80222 80224 80227 80209 80207 80206 80205 80204 80202 80014 80203 80208 80217 80243 80244 80248 80250 80256 80257 80259 80261 80262 80265 80266 80271 80273 80274 80281 80291 80299,1219.24,37218614,16573573,10,7.8,6.8
1840020551,Riverside,California,CA,Riverside,6065,33.9381,-117.3948,2107852,1574,92508 92503 92501 92505 92504 92507 92506 92502 92513 92514 92516 92517 92521 92522,453.118,110674673,82279482,12.8,5.2,10.6
1840001592,Baltimore,Maryland,MD,Baltimore,24510,39.3051,-76.6144,2106068,2830,21218 21211 21210 21213 21212 21215 21214 21217 21216 21231 21230 21239 21251 21209 21202 21206 21207 21205 21226 21201 21223 21224 21225 21229 21203 21233 21263 21264 21270 21273 21275 21278 21279 21281 21287 21290 21297 21298,645.325,32578881,3419452,13.4,8.4,6.6
1840020364,Las Vegas,Nevada,NV,Clark,32003,36.2333,-115.2654,2104198,1773,89107 89106 89104 89102 89101 89108 89138 89130 89131 89134 89143 89146 89145 89144 89149 89124 89110 89117 89129 89128 88901 88905 89105 89114 89116 89125 89126 89127 89133 89137 89140 89151 89152 89153 89155 89158 89163 89185 89195,716.623,28728879,11606341,15.1,5.1,5.1
1840019941,Portland,Oregon,OR,Multnomah,41051,45.5372,-122.65,2074775,1894,97227 97221 97220 97229 97203 97202 97201 97206 97205 97204 97209 97208 97266 97218 97236 97232 97233 97230 97239 97219 97214 97215 97216 97217 97210 97211 97212 97213 97207 97228 97238 97240 97242 97250 97251 97252 97253 97254 97256 97280 97282 97283 97286 97290 97291 97292 97293 97294,341.611,20652012,42972770,12.6,8.9,10.7
1840022220,San Antonio,Texas,TX,Bexar,48029,29.4658,-98.5253,2049293,1231,78112 78259 78258 78252 78251 78250 78257 78256 78255 78254 78208 78201 78202 78203 78204 78205 78207 78245 78231 78230 78233 78232 78235 78234 78237 78239 78238 78209 78109 78266 78260 78219 78218 78217 78216 78215 78214 78213 78212 78211 78210 78244 78247 78240 78242 78248 78249 78073 78023 78222 78223 78220 78221 78226 78227 78224 78225 78228 78229 78206 78241 78246 78265 78268 78269 78270 78278 78279 78280 78283 78284 78285 78288 78289 78291 78292 78293 78294 78295 78296 78297 78298 78299,857.519,369966928,103399309,13.4,6.6,8.3
1840001651,St. Louis,Missouri,MO,St. Louis,29510,38.6358,-90.2451,2024074,1879,63110 63111 63112 63113 63115 63116 63118 63120 63139 63107 63106 63104 63103 63102 63101 63109 63108 63155 63137 63143 63147 63150 63156 63157 63158 63160 63163 63164 63166 63169 63177 63178 63179 63180 63188 63197,1618.42,66442664,5428458,14.3,8.4,7.9
1840021491,Sacramento,California,CA,Sacramento,6067,38.5667,-121.4683,1898019,2029,95820 95838 95832 95833 95831 95834 95835 95811 95814 95815 95816 95818 95819 95828 95821 95823 95822 95825 95824 95826 95817 94203 94204 94205 94207 94208 94209 94211 94229 94230 94232 94234 94235 94236 94237 94239 94240 94244 94245 94247 94248 94249 94250 94252 94254 94256 94257 94258 94259 94261 94262 94263 94267 94268 94269 94271 94273 94274 94277 94278 94279 94280 94282 94283 94284 94285 94287 94288 94289 94290 94291 94293 94294 94295 94296 94297 94298 94299 95812 95813 95840 95851 95852 95853 95867 95894,453.118,110674673,82279482,13.1,6.3,11.5
1840015099,Orlando,Florida,FL,Orange,12095,28.4772,-81.3369,1822394,1003,32829 32827 32824 32822 32804 32805 32806 32807 32801 32803 32808 32839 32835 32832 32819 32811 32814 32812 32802 32853 32854 32856 32861 32862 32872 32877 32885 32886 32891 32897,842.169,238451609,12328825,12.6,6,7.1
1840021570,San Jose,California,CA,Santa Clara,6085,37.3019,-121.8486,1798103,2218,95118 95128 95124 95125 95123 95008 95002 95117 95116 95111 95110 95113 95112 95119 95126 95127 95120 95121 95148 95133 95132 95131 95130 95136 95135 95134 95139 95138 95037 95013 95129 95122 95101 95103 95106 95109 95115 95141 95150 95151 95153 95154 95155 95156 95157 95158 95159 95160 95161 95164 95172 95173 95190 95191 95192 95193 95194 95196,453.118,110674673,82279482,10.9,7,10.5
1840000596,Cleveland,Ohio,OH,Cuyahoga,39035,41.4767,-81.6804,1710093,1893,44135 44128 44119 44113 44112 44111 44110 44115 44114 44144 44127 44120 44104 44105 44106 44101 44102 44103 44108 44109 44181 44190 44191 44192 44193 44194 44195 44197 44198 44199,1253.28,117491996,3500737,18.7,8.8,8.1
1840001254,Pittsburgh,Pennsylvania,PA,Allegheny,42003,40.4396,-79.9762,1703266,2093,15216 15217 15214 15212 15213 15210 15211 15218 15219 15290 15232 15233 15260 15205 15204 15207 15206 15201 15203 15208 15224 15234 15222 15221 15220 15226 15120 15230 15240 15250 15251 15252 15253 15254 15255 15257 15258 15259 15261 15262 15264 15265 15267 15270 15272 15274 15279 15281 15282 15286 15289 15295,697.527,221360618,8774335,12.3,8.3,7.2
1840019590,Austin,Texas,TX,Travis,48453,30.3004,-97.7522,1687311,1181,78749 78748 78741 78742 78745 78744 78747 78746 78717 78712 78719 78617 78739 78735 78730 78731 78732 78733 78705 78704 78701 78703 78702 78758 78759 78752 78753 78750 78751 78756 78757 78754 78652 78723 78722 78721 78727 78726 78725 78724 78729 78728 73301 73344 78651 78680 78708 78709 78710 78711 78713 78714 78715 78718 78720 78755 78760 78761 78762 78763 78765 78766 78767 78768 78772 78773 78774 78778 78779 78783 78799,857.519,369966928,103399309,9.6,5.2,8.8
1840003814,Cincinnati,Ohio,OH,Hamilton,39061,39.1413,-84.5061,1662691,1507,45219 45213 45212 45211 45217 45216 45214 45233 45225 45237 45229 45226 45227 45224 45232 45230 45204 45205 45206 45207 45202 45203 45208 45209 45223 45239 45238 45220 45201 45221 45250 45254 45262 45263 45264 45267 45268 45269 45270 45271 45273 45274 45275 45296 45298 45299 45999,1253.28,117491996,3500737,14.6,6.8,9.3
1840008535,Kansas City,Missouri,MO,Jackson,29095,39.1239,-94.5541,1636715,607,64161 64163 64165 64167 64053 64151 64153 64155 64154 64157 64156 64158 64108 64109 64102 64106 64105 64101 64128 64129 64124 64125 64126 64127 64120 64123 64164 64166 64192 64119 64118 64114 64117 64116 64111 64110 64113 64112 64132 64130 64146 64145 64149 64147 64139 64138 64133 64131 64137 64136 64134 64121 64141 64148 64162 64170 64171 64179 64180 64184 64187 64188 64191 64195 64196 64197 64198 64199 64999,1618.42,66442664,5428458,13.6,4.8,7.9
1840030084,Indianapolis,Indiana,IN,Marion,18097,39.7771,-86.1458,1588961,935,46218 46219 46217 46214 46260 46268 46224 46228 46183 46231 46234 46235 46236 46237 46239 46250 46208 46201 46203 46202 46205 46204 46256 46254 46259 46227 46226 46225 46222 46221 46220 46229 46113 46278 46241 46240 46206 46207 46209 46230 46242 46244 46247 46251 46253 46255 46262 46277 46282 46283 46285 46288 46298,1549.45,82568218,7388006,13.7,4.9,10.1
1840003760,Columbus,Ohio,OH,Franklin,39049,39.9862,-82.985,1562009,1582,43026 43109 43054 43220 43221 43222 43223 43224 43081 43228 43227 43211 43213 43212 43215 43214 43217 43219 43002 43004 43068 43085 43240 43229 43235 43232 43231 43230 43119 43110 43017 43016 43137 43210 43202 43203 43201 43206 43207 43204 43205 43209 43218 43236 43251 43260 43266 43268 43270 43271 43272 43279 43287 43291,1253.28,117491996,3500737,11.7,5.2,8.7
1840014557,Charlotte,North Carolina,NC,Mecklenburg,37119,35.208,-80.8304,1512923,1113,28269 28262 28105 28280 28282 28209 28208 28205 28204 28207 28206 28203 28202 28227 28226 28278 28270 28273 28277 28134 28216 28217 28214 28215 28212 28213 28210 28211 28244 28126 28130 28201 28218 28219 28220 28221 28222 28223 28224 28228 28229 28230 28231 28232 28233 28234 28235 28237 28241 28242 28243 28246 28247 28253 28254 28255 28256 28258 28260 28263 28265 28266 28271 28272 28274 28275 28281 28284 28285 28287 28288 28289 28290 28296 28297 28299,648.445,105124842,19209423,10.3,5,7
1840003871,Virginia Beach,Virginia,VA,Virginia Beach,51810,36.7335,-76.0435,1478868,709,23459 23451 23453 23452 23455 23457 23456 23454 23460 23461 23462 23464 23450 23458 23463 23465 23466 23467 23471 23479,644.845,96500538,6299319,10.6,3.2,6.1
1840003046,Milwaukee,Wisconsin,WI,Milwaukee,55079,43.0642,-87.9673,1365787,2369,53203 53202 53207 53206 53205 53204 53209 53208 53233 53211 53218 53219 53214 53215 53216 53210 53212 53213 53295 53225 53224 53227 53226 53221 53220 53223 53222 53228 53201 53237 53259 53263 53274 53278 53288 53290 53293,1192.01,55655306,5785231,16,7.7,8.5
1840003289,Providence,Rhode Island,RI,Providence,44007,41.823,-71.4187,1203230,3773,02903 02906 02907 02905 02908 02909 02904 02912 02901 02902 02918 02940,827.559,8276844,616897,14.2,7.4,6.3
1840015031,Jacksonville,Florida,FL,Duval,12031,30.3322,-81.6749,1181496,470,32224 32225 32226 32227 32220 32221 32222 32223 32228 32219 32218 32217 32216 32211 32210 32212 32246 32244 32233 32234 32209 32205 32202 32250 32254 32257 32256 32208 32206 32207 32258 32277 32204 32099 32201 32203 32214 32229 32231 32232 32235 32236 32238 32239 32241 32245 32247 32255,842.169,238451609,12328825,13.9,3.8,7.4
1840021383,Salt Lake City,Utah,UT,Salt Lake,49035,40.7777,-111.9306,1098526,699,84116 84115 84113 84112 84111 84144 84128 84180 84108 84101 84102 84103 84104 84105 84106 84110 84114 84122 84132 84133 84134 84138 84139 84143 84145 84147 84148 84150 84151 84152 84158 84199,1565.76,32442621,4644687,11.2,8.4,7
1840036155,Nashville,Tennessee,TN,Davidson,47037,36.1715,-86.7843,1081903,544,37027 37138 37076 37072 37205 37201 37206 37240 37243 37246 37080 37218 37219 37216 37217 37214 37215 37212 37213 37210 37211 37189 37209 37208 37204 37207 37203 37115 37013 37228 37221 37220 37143 37011 37116 37202 37222 37224 37227 37229 37230 37232 37234 37235 37236 37238 37241 37242 37244 37250,571.407,66730539,13835471,13.4,3.7,6
1840001698,Richmond,Virginia,VA,Richmond,51760,37.5295,-77.4756,1075798,1484,23222 23223 23220 23221 23226 23227 23224 23225 23230 23235 23234 23219 23173 23218 23232 23249 23260 23261 23269 23274 23276 23278 23282 23284 23285 23286 23289 23290 23291 23292 23295 23298,644.845,96500538,6299319,13.5,7.7,6
1840015457,Memphis,Tennessee,TN,Shelby,47157,35.1046,-89.9773,1066967,792,38120 38127 38107 38106 38105 38104 38103 38109 38108 38152 38132 38133 38131 38134 38141 38112 38111 38114 38115 38116 38117 38118 38119 38018 38016 38128 38122 38125 38126 37501 37544 38088 38101 38113 38124 38130 38136 38137 38145 38148 38150 38151 38157 38159 38161 38163 38166 38168 38173 38174 38175 38177 38181 38182 38184 38186 38187 38188 38190 38193 38194 38197,571.407,66730539,13835471,17.4,4.1,6.8
1840014497,Raleigh,North Carolina,NC,Wake,37183,35.8325,-78.6435,1038738,1254,27617 27616 27615 27614 27613 27612 27610 27608 27609 27601 27603 27604 27605 27606 27607 27602 27619 27620 27622 27624 27626 27627 27628 27634 27636 27640 27650 27656 27658 27661 27668 27675 27676 27690 27697 27698,648.445,105124842,19209423,9.9,4.9,6.4
1840001839,New Orleans,Louisiana,LA,Orleans,22071,30.0687,-89.9288,1020886,889,70139 70130 70131 70114 70115 70116 70117 70112 70113 70118 70119 70129 70128 70125 70124 70127 70126 70122 70163 70142 70145 70146 70148 70150 70151 70152 70153 70154 70156 70157 70158 70159 70160 70161 70162 70164 70165 70166 70167 70170 70172 70174 70175 70176 70177 70178 70179 70181 70182 70184 70185 70186 70187 70189 70190 70195,761.738,97195892,3358812,13.7,7.4,7.7
1840030815,Louisville,Kentucky,KY,Jefferson,21111,38.1663,-85.6485,1005654,905,40177 40245 40241 40218 40219 40214 40216 40211 40213 40059 40291 40299 40220 40223 40222 40229 40228 40023 40272 40207 40209 40258 40118 40018 40027 40225 40261 40268 40269 40281,1684.87,58118198,5395636,13.2,6.3,6.8
1840020428,Oklahoma City,Oklahoma,OK,Oklahoma,40109,35.4676,-97.5136,972943,417,73012 73013 73099 73097 73119 73118 73114 73117 73116 73111 73112 73020 73173 74857 73142 73141 73145 73149 73078 73109 73106 73107 73139 73132 73131 73135 73134 73008 73084 73105 73169 73162 73165 73102 73103 73054 73151 73150 73159 73064 73108 73104 73129 73179 73170 73049 73127 73120 73121 73122 73128 73101 73113 73124 73125 73126 73136 73137 73143 73144 73146 73147 73148 73152 73154 73155 73157 73163 73164 73167 73172 73178 73184 73189 73190 73194 73195,708.652,49722083,32575748,14.1,2.6,8.5
1840004836,Bridgeport,Connecticut,CT,Fairfield,9001,41.1918,-73.1953,924449,3470,06605 06604 06607 06606 06608 06610 06601 06602,529.766,39265173,1925399,14.3,6.9,7.9
1840000386,Buffalo,New York,NY,Erie,36029,42.9016,-78.8487,914341,2441,14208 14209 14202 14203 14201 14206 14207 14204 14220 14222 14218 14211 14210 14213 14212 14215 14214 14216 14205 14233 14240 14263 14264 14267 14269 14270 14272 14273 14276 14280,416.695,91870655,37541300,16.1,7.8,6.5
1840020696,Fort Worth,Texas,TX,Tarrant,48439,32.7811,-97.3473,909585,1016,76164 76040 76134 76135 76137 76131 76132 76133 76109 76108 76105 76104 76107 76106 76103 76102 76155 76006 76053 76052 76129 76123 76120 76244 76008 76179 76177 76036 76140 76262 76118 76119 76116 76117 76114 76115 76112 76110 76111 76127 76126 76101 76113 76121 76122 76124 76130 76147 76150 76161 76162 76163 76166 76190 76191 76193 76195 76196 76197 76198 76199,857.519,369966928,103399309,13.9,3.2,8.7
1840004773,Hartford,Connecticut,CT,Hartford,9003,41.7661,-72.6834,905152,2712,06106 06105 06103 06120 06112 06160 06114 06101 06102 06104 06115 06123 06126 06127 06132 06133 06134 06140 06141 06142 06143 06144 06145 06146 06147 06150 06151 06152 06154 06167 06176 06183,529.766,39265173,1925399,15.1,8.5,7.3
1840022101,Tucson,Arizona,AZ,Pima,4019,32.1545,-110.8782,888486,889,85705 85707 85706 85756 85723 85726 85724 85701 85708 85711 85748 85745 85747 85716 85714 85715 85712 85713 85710 85719 85730 85702 85703 85709 85717 85720 85721 85722 85725 85731 85732 85738 85751 85754 85775,736.979,96114769,13190288,14.5,5.8,5
1840009315,Omaha,Nebraska,NE,Douglas,31055,41.2627,-96.0522,847819,1309,68112 68117 68118 68107 68104 68105 68108 68178 68164 68122 68127 68124 68022 68111 68110 68114 68116 68137 68135 68132 68144 68134 68131 68130 68102 68106 68152 68154 68101 68103 68109 68119 68139 68145 68172 68175 68176 68179 68180 68182 68183 68197 68198,1200.67,26107499,10648740,11,4.7,7.3
1840023252,El Paso,Texas,TX,El Paso,48141,31.8479,-106.4309,843386,1022,79901 79902 79903 79904 79905 79906 79907 79930 79932 79935 79934 79936 79912 79911 79835 79922 79920 79927 79924 79925 79915 79910 79913 79914 79917 79923 79926 79931 79937 79940 79941 79943 79944 79945 79946 79947 79948 79949 79950 79951 79952 79953 79954 79955 79958 79960 79961 79968 79976 79978 79980 79995 79996 79997 79998 79999 88540 88541 88542 88543 88544 88545 88546 88547 88548 88549 88550 88553 88554 88555 88556 88557 88558 88559 88560 88561 88562 88563 88565 88566 88567 88568 88569 88570 88571 88572 88573 88574 88575 88576 88577 88578 88579 88580 88581 88582 88583 88584 88585 88586 88588 88590 88595,857.519,369966928,103399309,14.1,4.9,8
1840013305,Honolulu,Hawaii,HI,Honolulu,15003,21.3294,-157.846,820987,2200,96859 96850 96822 96826 96813 96815 96814 96817 96816 96819 96818 96801 96802 96803 96804 96805 96806 96807 96808 96809 96810 96811 96812 96820 96823 96828 96830 96836 96837 96838 96839 96840 96841 96843 96844 96846 96847 96848 96849 96858 96898,1526.5,7439241,1629999,11.2,7.9,3.4
1840021024,McAllen,Texas,TX,Hidalgo,48215,26.2273,-98.2471,804114,841,78573 78504 78503 78501 78502 78505,857.519,369966928,103399309,14.5,3.2,8
1840019176,Albuquerque,New Mexico,NM,Bernalillo,35001,35.1053,-106.6464,761195,1155,87121 87120 87123 87112 87113 87110 87111 87116 87114 87109 87108 87102 87105 87104 87107 87106 87119 87125 87131 87151 87153 87154 87158 87181 87184 87187 87190 87191 87192 87194 87196 87197 87198 87199,1259.87,24755709,9250130,12.8,4.9,6.3
1840006507,Birmingham,Alabama,AL,Jefferson,1073,33.5277,-86.7987,739573,553,35218 35214 35215 35217 35210 35211 35212 35213 35243 35242 35224 35221 35222 35228 35203 35207 35206 35205 35204 35209 35208 35254 35068 35061 35234 35235 35233 35201 35202 35220 35232 35237 35238 35246 35249 35255 35259 35261 35270 35282 35283 35285 35287 35290 35291 35292 35294 35295 35297 35298,721.058,119834631,17007402,16.6,0.2,8.8
1840034249,Dayton,Ohio,OH,Montgomery,39113,39.7797,-84.1998,718353,978,45432 45402 45403 45406 45404 45405 45409 45428 45420 45424 45410 45414 45417 45419 45377 45401 45412 45422 45423 45481 45490,1253.28,117491996,3500737,18.1,6.2,7.4
1840000373,Rochester,New York,NY,Monroe,36055,43.168,-77.6162,703952,2220,14608 14609 14606 14604 14605 14607 14627 14620 14621 14619 14615 14614 14617 14611 14610 14613 14612 14602 14603 14638 14639 14642 14643 14644 14646 14647 14649 14650 14651 14653,416.695,91870655,37541300,15.5,6.5,7.2
1840020319,Fresno,California,CA,Fresno,6019,36.7831,-119.7941,703498,1789,93730 93650 93702 93703 93701 93706 93704 93705 93728 93720 93721 93722 93726 93727 93711 93710 93707 93708 93709 93714 93715 93716 93717 93718 93724 93729 93740 93744 93745 93750 93755 93760 93761 93764 93765 93771 93772 93774 93775 93776 93777 93778 93779 93790 93791 93792 93793 93794 93844,453.118,110674673,82279482,15.4,5,10.7
1840001044,Allentown,Pennsylvania,PA,Lehigh,42077,40.5961,-75.4756,683794,2672,18105 18104 18101 18103 18102 18109 18001,697.527,221360618,8774335,16.5,6,7.6
1840021672,Tulsa,Oklahoma,OK,Tulsa,40143,36.1284,-95.9042,671033,784,74133 74134 74135 74132 74130 74136 74137 74145 74127 74112 74114 74115 74117 74119 74015 74105 74129 74128 74120 74126 74110 74116 74107 74106 74104 74103 74146 74108 74101 74121 74141 74147 74148 74149 74150 74152 74153 74155 74156 74158 74159 74169 74170 74171 74172 74182 74186 74187 74192 74193,708.652,49722083,32575748,14.6,3.6,8.1
1840015130,Cape Coral,Florida,FL,Lee,12071,26.6446,-81.9956,668382,708,33991 33990 33993 33914 33909 33904 33910 33911 33915,842.169,238451609,12328825,14.2,2.1,7.4
1840018905,Concord,California,CA,Contra Costa,6013,37.9722,-122.0016,652308,1633,94518 94519 94521 94520 94522 94524 94527,453.118,110674673,82279482,12,5.5,10.7
1840018825,Colorado Springs,Colorado,CO,El Paso,8041,38.8674,-104.7606,642413,946,80951 80909 80904 80905 80906 80907 80903 80939 80938 80910 80917 80916 80915 80914 80919 80918 80927 80924 80925 80922 80923 80920 80921 80929 80901 80932 80934 80935 80936 80937 80941 80942 80946 80947 80949 80950 80960 80962 80977 80995 80997,1219.24,37218614,16573573,10.9,3,7.4
1840015163,Charleston,South Carolina,SC,Charleston,45019,32.8153,-79.9628,628377,480,29414 29424 29455 29407 29401 29403 29409 29492 29412 29402 29413 29417 29422 29425 29457,513.861,91547963,6980834,9.9,3.2,7
1840000466,Springfield,Massachusetts,MA,Hampden,25013,42.1155,-72.5395,623401,1860,01151 01118 01119 01199 01129 01128 01107 01105 01104 01103 01109 01108 01101 01102 01111 01115 01138 01139 01144 01152,879.901,14202265,3992900,17,6.9,6.5
1840002928,Grand Rapids,Michigan,MI,Kent,26081,42.962,-85.6562,609314,1734,49546 49507 49506 49505 49504 49503 49508 49501 49502 49514 49515 49523 49555 49588 49599,938.031,96709974,9914747,13.7,6.5,7.7
1840020580,Mission Viejo,California,CA,Orange,6059,33.6095,-117.655,590249,2058,92692 92691 92690,453.118,110674673,82279482,10.6,3.2,10.7
1840000417,Albany,New York,NY,Albany,36001,42.6664,-73.7987,586383,1740,12208 12209 12204 12206 12207 12202 12203 12205 12210 12222 12201 12223 12226 12228 12229 12230 12231 12232 12233 12234 12235 12236 12237 12238 12239 12240 12241 12242 12243 12244 12245 12246 12248 12250 12255 12257 12260 12261,416.695,91870655,37541300,11.2,8.1,7.8
1840014486,Knoxville,Tennessee,TN,Knox,47093,35.9692,-83.9496,586048,733,37918 37912 37909 37902 37924 37920 37921 37922 37923 37919 37915 37914 37917 37916 37901 37927 37928 37929 37939 37950 37995 37996 37997,571.407,66730539,13835471,15.3,4.4,6.2
1840019148,Bakersfield,California,CA,Kern,6029,35.3529,-119.0359,579295,990,93306 93307 93304 93305 93301 93309 93314 93311 93313 93312 93302 93383 93384 93385 93387 93389 93390,453.118,110674673,82279482,15.1,4.4,15.5
1840020135,Ogden,Utah,UT,Weber,49057,41.2278,-111.9682,578523,1230,84404 84401 84403 84244 84407 84408 84409 84415,1565.76,32442621,4644687,13.2,6.6,7.6
1840013941,Baton Rouge,Louisiana,LA,East Baton Rouge,22033,30.4418,-91.131,570308,983,70836 70808 70809 70802 70803 70801 70806 70807 70805 70820 70819 70811 70815 70814 70816 70804 70813 70821 70822 70823 70825 70827 70831 70833 70835 70873 70874 70891 70892 70893 70894 70895 70898,761.738,97195892,3358812,13.2,4.5,8.1
1840000791,Akron,Ohio,OH,Summit,39153,41.0798,-81.5219,565208,1231,44306 44307 44304 44305 44302 44303 44301 44308 44320 44311 44310 44313 44312 44319 44314 44309 44315 44316 44317 44325 44326 44328 44334 44396 44398,1253.28,117491996,3500737,15.9,5.3,8
1840004850,New Haven,Connecticut,CT,New Haven,9009,41.3112,-72.9246,564830,2690,06519 06511 06510 06513 06512 06515 06501 06502 06503 06505 06506 06507 06508 06509 06520 06521 06530 06531 06532 06533 06534 06535 06536 06540,529.766,39265173,1925399,13,7.9,8.2
1840014730,Columbia,South Carolina,SC,Richland,45079,34.0376,-80.9037,560041,373,29202 29203 29205 29201 29207 29204 29208 29209 29212 29225 29229 29147 29210 29206 29214 29215 29216 29217 29218 29220 29224 29226 29240 29250,513.861,91547963,6980834,11.7,5.2,6.9
1840020566,Mesa,Arizona,AZ,Maricopa,4013,33.4017,-111.718,518012,1448,85208 85209 85201 85202 85203 85204 85205 85206 85207 85215 85213 85212 85210 85211 85214 85216 85274 85275 85277,736.979,96114769,13190288,14,4.6,8.3
1840015094,Palm Bay,Florida,FL,Brevard,12009,27.955,-80.6627,507002,456,32909 32905 32907 32976 32948 32908 32902 32906 32910 32911,842.169,238451609,12328825,15.6,1.8,7.9
1840020174,Provo,Utah,UT,Utah,49049,40.2457,-111.6457,500617,1080,84604 84606 84601 84602 84603 84605,1565.76,32442621,4644687,9.8,6,7.6
1840000434,Worcester,Massachusetts,MA,Worcester,25027,42.2705,-71.8079,498328,1916,01610 01608 01609 01602 01603 01604 01605 01606 01607 01601 01613 01614 01615 01653 01655,879.901,14202265,3992900,13.7,5.7,6.5
1840020553,Murrieta,California,CA,Riverside,6065,33.572,-117.1909,496046,1335,92563 92562,453.118,110674673,82279482,11.2,2.6,10.6
1840001686,Wichita,Kansas,KS,Sedgwick,20173,37.6896,-97.3442,482249,931,67230 67235 67260 67217 67216 67215 67214 67213 67212 67211 67210 67219 67218 67223 67220 67226 67202 67203 67204 67205 67206 67207 67208 67209 67201 67275 67276 67277 67278,804.193,30424312,24117519,13.2,2.8,7.8
1840000572,Toledo,Ohio,OH,Lucas,39095,41.6639,-83.5822,482111,1308,43615 43611 43613 43612 43614 43608 43610 43606 43607 43604 43605 43609 43620 43623 43601 43603 43635 43652 43656 43657 43659 43660 43661 43666 43667 43681 43682 43697 43699,1253.28,117491996,3500737,16.5,3.9,8.7
1840007069,Des Moines,Iowa,IA,Polk,19153,41.5725,-93.6105,473957,938,50309 50312 50314 50316 50317 50310 50311 50313 50319 50321 50320 50315 50301 50302 50303 50304 50305 50306 50307 50308 50318 50328 50329 50330 50331 50332 50335 50340 50380 50381 50391 50392 50393 50394 50395 50396 50936 50940 50947 50950 50980 50981 50982 50983,615.198,24199572,35437099,11.3,5,7.5
1840020490,Long Beach,California,CA,Los Angeles,6037,33.7981,-118.1675,462628,3523,90822 90804 90805 90806 90807 90802 90803 90808 90831 90814 90813 90810 90815 90801 90832 90833 90840 90842 90844 90846 90847 90848 90853,453.118,110674673,82279482,12.9,8,10.7
1840015119,Port St. Lucie,Florida,FL,St. Lucie,12111,27.2796,-80.3883,461152,653,34986 34984 34983 34987 34952 34953 34985,842.169,238451609,12328825,14.2,1,7.4
1840019390,Denton,Texas,TX,Denton,48121,33.2176,-97.1419,457177,567,76207 76205 76201 76208 76209 76210 76259 76202 76203 76204 76206,857.519,369966928,103399309,10.6,3.8,8.7
1840002915,Madison,Wisconsin,WI,Dane,55025,43.0826,-89.3931,447245,1263,53706 53704 53705 53703 53726 53792 53719 53718 53715 53714 53717 53716 53711 53713 53701 53707 53708 53725 53774 53777 53782 53783 53784 53785 53786 53788 53790 53793 53794,1192.01,55655306,5785231,9.3,6.3,8.5
1840020121,Reno,Nevada,NV,Washoe,32031,39.5497,-119.8483,445020,907,89521 89523 89439 89503 89502 89501 89506 89509 89508 89519 89512 89505 89507 89533 89555 89557 89595 89599,716.623,28728879,11606341,13.1,4.3,11
1840015509,Little Rock,Arkansas,AR,Pulaski,5119,34.7256,-92.3576,439815,634,72211 72210 72212 72223 72209 72202 72201 72206 72207 72204 72205 72103 72227 72215 72217 72219 72222 72225 72231 72255 72260 72295,951.287,48839978,5801281,13.7,3.3,8.2
1840020296,Oakland,California,CA,Alameda,6001,37.7903,-122.2165,433031,2991,94621 94705 94704 94611 94610 94613 94619 94612 94618 94606 94607 94602 94603 94601 94609 94605 94608 94604 94614 94615 94617 94620 94623 94624 94649 94659 94660 94661 94666,453.118,110674673,82279482,12.8,8.3,10.5
1840013364,Durham,North Carolina,NC,Durham,37063,35.9794,-78.9031,424700,959,27703 27705 27704 27707 27701 27709 27712 27713 27706 27708 27710 27715 27717 27722,648.445,105124842,19209423,11,4.8,4.8
1840015324,Winston-Salem,North Carolina,NC,Forsyth,37067,36.1029,-80.2611,422269,721,27110 27127 27040 27107 27106 27105 27104 27103 27101 27109 27102 27108 27111 27113 27114 27115 27116 27117 27120 27130 27150 27152 27155 27157 27198 27199,648.445,105124842,19209423,13.2,3.4,8
1840019304,Indio,California,CA,Riverside,6065,33.7346,-116.2346,417059,1066,92241 92201 92203,453.118,110674673,82279482,15.1,3.7,10.7
1840015064,Palm Coast,Florida,FL,Flagler,12035,29.5392,-81.246,417007,364,32164 32136 32137 32135 32142 32143,842.169,238451609,12328825,14.7,0,8.5
1840014569,Chattanooga,Tennessee,TN,Hamilton,47065,35.0657,-85.2488,415501,493,37415 37416 37410 37411 37419 37409 37421 37363 37408 37403 37402 37407 37405 37406 37404 37343 37351 37350 37401 37414 37424 37450,571.407,66730539,13835471,16.2,3.3,8.5
1840021093,Spokane,Washington,WA,Spokane,53063,47.6671,-117.433,412275,1247,99201 99203 99202 99205 99204 99207 99208 99224 99223 99001 99212 99209 99210 99219 99220 99252 99256 99258 99260,213.274,28922609,87156565,13.7,6,103
1840000378,Syracuse,New York,NY,Onondaga,36067,43.0409,-76.1438,404223,2195,13210 13214 13290 13224 13207 13206 13205 13204 13203 13202 13208 13201 13217 13218 13221 13235 13244 13252 13261,416.695,91870655,37541300,15,5.9,7.8
1840019422,Arlington,Texas,TX,Tarrant,48439,32.6998,-97.125,398854,1607,76040 76006 76001 76002 76018 76013 76012 76011 76010 76017 76016 76015 76014 76003 76004 76005 76007 76019 76094 76096,857.519,369966928,103399309,13,0.1,8.7
1840021517,Stockton,California,CA,San Joaquin,6077,37.9765,-121.3109,397264,1941,95219 95212 95210 95211 95209 95205 95207 95202 95204 95206 95203 95201 95267 95269 95296 95297,453.118,110674673,82279482,15.2,4.2,10.5
1840029462,Augusta,Georgia,GA,Richmond,13245,33.3645,-82.0708,390809,252,30912 30815 30812 30907 30906 30904 30901 30905 30909 30805 30914 30916 30917 30919 30999,723.513,105671813,13921563,15.5,1.9,8.7
1840027142,Boise,Idaho,ID,Ada,16001,43.6007,-116.2312,389280,1056,83703 83702 83705 83704 83709 83716 83706 83712 83713 83701 83708 83715 83717 83720 83722 83724 83725 83728 83729 83735 83756 83799,213.396,4229986,13444585,10.2,3.8,7.8
1840020474,Oxnard,California,CA,Ventura,6111,34.1963,-119.1815,387647,3040,93035 93036 93030 93033 93031 93032 93034,453.118,110674673,82279482,14.9,5.5,10.7
1840003389,Scranton,Pennsylvania,PA,Lackawanna,42069,41.4044,-75.6649,384250,1169,18509 18508 18510 18503 18505 18507 18504 18515 18540,697.527,221360618,8774335,15.6,5.1,7.6
1840020287,Modesto,California,CA,Stanislaus,6099,37.6374,-121.0028,383134,1933,95358 95356 95355 95354 95351 95350 95352 95353 95397,453.118,110674673,82279482,14.7,5.2,10.7
1840018794,Aurora,Colorado,CO,Adams,8001,39.7087,-104.7273,379289,949,80247 80137 80045 80018 80019 80016 80017 80014 80015 80012 80013 80010 80011 80040 80041 80042 80044 80046 80047,1219.24,37218614,16573573,11.6,6.4,6.8
1840003563,Youngstown,Ohio,OH,Mahoning,39099,41.0993,-80.6463,378732,744,44502 44503 44504 44505 44506 44507 44509 44511 44510 44501 44555,1253.28,117491996,3500737,20.4,3.5,8
1840013368,Fayetteville,Arkansas,AR,Washington,5143,36.0713,-94.166,351246,625,72704 72703 72701 72702,951.287,48839978,5801281,11.5,3.9,8
1840019322,Anaheim,California,CA,Orange,6059,33.839,-117.8572,350365,2688,92808 92806 92807 92804 92805 92802 92801 92803 92809 92812 92815 92816 92817 92825 92850 92899,453.118,110674673,82279482,13.1,4.9,12
1840021731,Victorville,California,CA,San Bernardino,6071,34.5277,-117.3536,346789,641,92394 92395 92392 92393,453.118,110674673,82279482,16.7,3.8,8.2
1840020516,Lancaster,California,CA,Los Angeles,6037,34.6935,-118.1753,343304,645,93535 93534 93536 93539 93584,453.118,110674673,82279482,15,0.9,10.7
1840013356,Greensboro,North Carolina,NC,Guilford,37081,36.0956,-79.8269,343090,887,27410 27455 27214 27408 27409 27403 27401 27406 27407 27405 27402 27404 27411 27412 27413 27417 27420 27427 27429 27435 27438 27495 27497 27498 27499,648.445,105124842,19209423,12.1,3.7,6.4
1840019718,Corpus Christi,Texas,TX,Nueces,48355,27.726,-97.3755,342464,789,78373 78408 78409 78406 78407 78404 78405 78402 78401 78419 78418 78414 78417 78416 78411 78410 78413 78412 78403 78426 78427 78460 78463 78465 78466 78467 78468 78469 78472 78480,857.519,369966928,103399309,13.7,4.6,8
1840008261,Fort Wayne,Indiana,IN,Allen,18003,41.0886,-85.1437,334122,943,46835 46845 46818 46814 46815 46816 46803 46802 46807 46806 46805 46804 46809 46808 46825 46801 46850 46851 46852 46853 46854 46855 46856 46857 46858 46859 46860 46861 46862 46863 46864 46865 46866 46867 46868 46869 46885 46895 46897,1549.45,82568218,7388006,13.6,2.8,8.3
1840021964,Santa Ana,California,CA,Orange,6059,33.7366,-117.8819,332318,4689,92703 92701 92705 92704 92707 92706 92702 92712 92735 92799,453.118,110674673,82279482,15.1,6.6,10.3
1840002949,Flint,Michigan,MI,Genesee,26049,43.0235,-83.6922,332190,1103,48553 48551 48504 48505 48506 48507 48502 48503 48550 48552 48556 48557,938.031,96709974,9914747,20.9,5,6
1840013490,Fayetteville,North Carolina,NC,Cumberland,37051,35.0846,-78.9776,327435,552,28304 28305 28306 28307 28301 28303 28308 28390 28311 28310 28314 28302 28309,648.445,105124842,19209423,12.9,3.1,6.8
1840014895,Jackson,Mississippi,MS,Hinds,28049,32.3163,-90.2124,325350,558,39272 39206 39204 39203 39202 39201 39209 39269 39174 39211 39212 39213 39216 39217 39060 39205 39207 39210 39215 39225 39236 39250 39271 39282 39283 39284 39286 39289 39296 39298,894.134,64651957,1847332,15.3,2.7,6.8
1840021488,Santa Rosa,California,CA,Sonoma,6097,38.4458,-122.7067,324634,1605,95404 95409 95403 95401 95407 95405 95406,453.118,110674673,82279482,12.5,4.6,10.7
1840003102,Lansing,Michigan,MI,Ingham,26065,42.7142,-84.5601,324286,1164,48933 48915 48912 48911 48910 48921 48906 48901 48909 48916 48919 48922 48924 48929 48930 48937 48951 48956,938.031,96709974,9914747,14.8,5.8,6
1840015211,Lexington,Kentucky,KY,Fayette,21067,38.0423,-84.4587,323152,439,40505 40506 40508 40509 40504 40507 40502 40503 40517 40516 40513 40511 40510 40515 40514 40512 40522 40523 40524 40526 40533 40536 40544 40546 40550 40555 40574 40575 40576 40577 40578 40579 40580 40581 40582 40583 40588 40591 40598,1684.87,58118198,5395636,13.2,3.8,6.8
1840003172,Ann Arbor,Michigan,MI,Washtenaw,26161,42.2755,-83.7312,322267,1659,48103 48104 48105 48108 48109 48113,938.031,96709974,9914747,9.1,7.9,8.2
1840020361,Henderson,Nevada,NV,Clark,32003,36.0133,-115.038,320189,1165,89044 89052 89002 89074 89015 89014 89011 89012 89009 89077,716.623,28728879,11606341,12.7,3.5,5.1
1840005061,Huntsville,Alabama,AL,Madison,1089,34.6988,-86.6412,319249,361,35801 35803 35802 35805 35806 35741 35824 35763 35757 35756 35810 35811 35816 35896 35762 35804 35807 35809 35814 35815 35893 35894 35895 35897 35899,721.058,119834631,17007402,13.2,1.8,7.1
1840006009,Mobile,Alabama,AL,Mobile,1097,30.6783,-88.1162,315502,522,36606 36607 36604 36605 36602 36603 36608 36609 36688 36582 36615 36617 36611 36610 36619 36618 36695 36693 36571 36601 36628 36633 36640 36641 36644 36652 36660 36670 36675 36689 36691,721.058,119834631,17007402,15,3,6.8
1840020151,Fort Collins,Colorado,CO,Larimer,8069,40.5478,-105.0656,312666,1149,80521 80528 80526 80524 80525 80523 80527 80553,1219.24,37218614,16573573,8.7,4.7,8.1
1840013411,Asheville,North Carolina,NC,Buncombe,37021,35.5704,-82.5536,312507,786,28806 28805 28804 28803 28801 28776 28810 28814 28815 28816,648.445,105124842,19209423,11.5,4.3,4.9
1840021864,Santa Clarita,California,CA,Los Angeles,6037,34.4175,-118.4964,312446,1162,91321 91351 91350 91355 91354 91387 91322 91382 91385 91386,453.118,110674673,82279482,10.8,5,10.7
1840008940,St. Paul,Minnesota,MN,Ramsey,27123,44.9477,-93.104,308096,2288,55114 55117 55116 55119 55130 55101 55155 55102 55103 55106 55107 55104 55105 55108 55131 55133 55144 55145 55146 55164 55170,770.366,40636378,15864248,10.3,7.7,7.3
1840018903,Antioch,California,CA,Contra Costa,6013,37.9789,-121.7958,302419,1466,94531 94509,453.118,110674673,82279482,13.7,6.6,10.7
1840015108,Lakeland,Florida,FL,Polk,12105,28.0556,-81.9545,302284,654,33813 33803 33801 33805 33815 33811 33802 33804 33806,842.169,238451609,12328825,15.7,2.9,8.4
1840001383,Trenton,New Jersey,NJ,Mercer,34021,40.2236,-74.7641,290716,4238,08638 08611 08618 08629 08609 08608 08601 08603 08604 08605 08607 08625 08645 08646 08647 08666 08695,492.293,58578058,2528400,17.5,7.9,7.7
1840009357,Lincoln,Nebraska,NE,Lancaster,31109,40.809,-96.6788,289490,1160,68528 68524 68526 68520 68521 68522 68516 68510 68512 68506 68507 68504 68505 68502 68503 68508 68509 68529 68542 68544 68583 68588,1200.67,26107499,10648740,9.4,3.8,6.1
1840009904,Springfield,Missouri,MO,Greene,29077,37.1943,-93.2916,288090,786,65810 65802 65803 65804 65806 65807 65809 65805 65808 65814 65817 65890 65897 65898 65899,1618.42,66442664,5428458,14.9,3.8,7.9
1840023385,Anchorage,Alaska,AK,Anchorage,2020,61.1508,-149.1091,288000,65,99518 99515 99517 99516 99513 99540 99567 99587 99508 99506 99507 99504 99505 99502 99503 99501 99577 99509 99511 99514 99520 99521 99522 99523 99524 99529 99530 99599,966.128,4342033,1814015,10.8,3.5,5.3
1840020662,Plano,Texas,TX,Collin,48085,33.0502,-96.7487,287677,1549,75093 75023 75025 75024 75074 75075 75026 75086,857.519,369966928,103399309,9.4,2.8,8.9
1840019325,Irvine,California,CA,Orange,6059,33.6772,-117.7738,287401,1691,92617 92614 92612 92618 92620 92602 92603 92604 92606 92616 92619 92650 92697 92698,453.118,110674673,82279482,8.7,3.6,10.7
1840007081,Davenport,Iowa,IA,Scott,19163,41.5563,-90.6052,285362,617,52802 52803 52801 52806 52807 52804 52805 52808 52809,615.198,24199572,35437099,11.2,2.3,8
1840009132,Rockford,Illinois,IL,Winnebago,17201,42.2597,-89.0641,282762,873,61114 61109 61108 61104 61107 61101 61103 61102 61105 61106 61110 61125 61126,556.444,156507019,16830687,15,3.6,8.1
1840002791,Newark,New Jersey,NJ,Essex,34013,40.7245,-74.1725,282011,4509,07103 07102 07105 07104 07107 07106 07108 07112 07114 07101 07175 07188 07191 07192 07193 07195 07198 07199,492.293,58578058,2528400,16.7,8.7,7.6
1840009241,South Bend,Indiana,IN,St. Joseph,18141,41.6767,-86.2696,280498,938,46601 46635 46628 46616 46614 46615 46613 46619 46617 46624 46626 46634 46660 46680 46699,1549.45,82568218,7388006,15.6,4.7,8.3
1840015768,Shreveport,Louisiana,LA,Caddo,22017,32.4656,-93.7956,280062,672,71129 71101 71103 71104 71105 71106 71107 71108 71109 71119 71118 71102 71120 71130 71133 71134 71135 71136 71138 71148 71149 71151 71152 71153 71154 71156 71161 71162 71163 71164 71165 71166,761.738,97195892,3358812,15.5,3.7,8.1
1840015830,Savannah,Georgia,GA,Chatham,13051,32.0281,-81.1784,276295,536,31322 31409 31408 31401 31405 31404 31407 31406 31419 31415 31403 31412 31416 31418 31420 31421,723.513,105671813,13921563,13.7,4.8,6.9
1840019350,Chula Vista,California,CA,San Diego,6073,32.6281,-117.0145,274492,2134,91911 91910 91913 91915 91914 91902 91908 91909 91912 91921,453.118,110674673,82279482,12.8,5.7,10.7
1840020007,Eugene,Oregon,OR,Lane,41039,44.0563,-123.1173,273439,1510,97405 97404 97401 97403 97402 97440,341.611,20652012,42972770,13.7,5.9,14.5
1840000963,Canton,Ohio,OH,Stark,39151,40.8075,-81.3677,269418,1040,44714 44710 44702 44703 44706 44707 44704 44705 44708 44709 44711 44750 44799,1253.28,117491996,3500737,18.6,4.7,9.3
1840020604,Lubbock,Texas,TX,Lubbock,48303,33.5659,-101.8878,267648,741,79406 79423 79424 79416 79412 79413 79410 79411 79414 79404 79407 79401 79403 79415 79402 79408 79409 79430 79452 79453 79457 79464 79490 79491 79493 79499,857.519,369966928,103399309,12.6,3.2,8.8
1840001185,Reading,Pennsylvania,PA,Berks,42011,40.34,-75.9267,267155,3466,19604 19601 19602 19611 19603 19612,697.527,221360618,8774335,18.7,6.5,7.4
1840021224,Salem,Oregon,OR,Marion,41047,44.9231,-123.0246,266804,1382,97302 97301 97306 97304 97317 97309 97310 97311 97312 97314,341.611,20652012,42972770,14.7,6.5,10.7
1840015977,St. Petersburg,Florida,FL,Pinellas,12103,27.7931,-82.6652,265351,1656,33707 33702 33762 33713 33712 33711 33710 33716 33715 33714 33705 33701 33703 33704 33729 33731 33732 33733 33734 33742 33743 33747,842.169,238451609,12328825,13.6,5.6,7.9
1840015044,Lafayette,Louisiana,LA,Lafayette,22055,30.2084,-92.0323,264357,877,70508 70507 70506 70503 70501 70502 70504 70505 70509 70593 70596 70598,761.738,97195892,3358812,13.4,3.3,7.7
1840021002,Laredo,Texas,TX,Webb,48479,27.5629,-99.4875,262491,958,78046 78045 78043 78040 78041 78042,857.519,369966928,103399309,16.2,4.5,8.3
1840003600,Jersey City,New Jersey,NJ,Hudson,34017,40.7161,-74.0682,262075,6863,07310 07311 07302 07307 07306 07305 07304 07097 07303 07308 07395 07399,492.293,58578058,2528400,11.7,9.3,7.6
1840014559,Concord,North Carolina,NC,Cabarrus,37025,35.3933,-80.6366,261801,585,28025 28027 28026,648.445,105124842,19209423,11.8,1.9,4.8
1840014887,Columbus,Georgia,GA,Muscogee,13215,32.51,-84.8771,261445,349,31829 31820 31909 31904 31905 31906 31907 31901 31903 31808 31902 31908 31914 31917 31993 31995 31997 31998 31999,723.513,105671813,13921563,14.3,2.2,8.5
1840019309,Chandler,Arizona,AZ,Maricopa,4013,33.2826,-111.8516,261165,1548,85248 85249 85226 85224 85225 85286 85246,736.979,96114769,13190288,10.7,4.1,8.3
1840020657,McKinney,Texas,TX,Collin,48085,33.2015,-96.6669,258277,1148,75069 75070 75071 75072,857.519,369966928,103399309,10.1,1.9,8.9
1840021940,Scottsdale,Arizona,AZ,Maricopa,4013,33.6872,-111.8651,258069,541,85259 85258 85251 85250 85257 85255 85254 85266 85262 85260 85252 85261 85267 85271,736.979,96114769,13190288,10.7,5.1,8.3
1840020854,Killeen,Texas,TX,Bell,48027,31.0754,-97.7296,258009,1073,76541 76543 76542 76549 76540 76547,857.519,369966928,103399309,11.7,2.5,8.7
1840015913,Tallahassee,Florida,FL,Leon,12073,30.4551,-84.2526,257601,747,32311 32312 32399 32304 32303 32301 32309 32308 32302 32306 32307 32313 32314 32315 32316,842.169,238451609,12328825,11.2,4.7,7.4
1840009373,Peoria,Illinois,IL,Peoria,17143,40.752,-89.6153,256286,888,61625 61606 61615 61614 61605 61602 61603 61604 61601 61613 61629 61630 61634 61636 61637 61638 61639 61643 61651 61652 61653 61654 61655 61656,556.444,156507019,16830687,13.2,4,8.1
1840015576,Wilmington,North Carolina,NC,New Hanover,37129,34.21,-77.8866,255616,929,28409 28401 28405 28403 28412 28402 28406 28408,648.445,105124842,19209423,12,3.1,6.8
1840008353,Montgomery,Alabama,AL,Montgomery,1101,32.3473,-86.2666,254634,479,36064 36112 36113 36110 36111 36117 36115 36116 36108 36105 36104 36106 36109 36107 36101 36114 36118 36120 36121 36123 36124 36125 36130 36131 36132 36135 36140 36141 36142 36177 36191,721.058,119834631,17007402,15.3,2.3,6.7
1840021947,Gilbert,Arizona,AZ,Maricopa,4013,33.3101,-111.7463,254114,1432,85233 85234 85297 85296 85295 85298 85236 85244 85299,736.979,96114769,13190288,9.8,2.4,8.3
1840020563,Glendale,Arizona,AZ,Maricopa,4013,33.5791,-112.2311,252381,1582,85301 85303 85302 85304 85306 85308 85355 85305 85307 85309 85310 85311 85312 85318,736.979,96114769,13190288,14.7,5.6,8.3
1840020363,North Las Vegas,Nevada,NV,Clark,32003,36.288,-115.0901,251974,992,89032 89031 89030 89086 89084 89085 89081 89115 89033 89087,716.623,28728879,11606341,14.9,4.8,5.1
1840003874,Chesapeake,Virginia,VA,Chesapeake,51550,36.6778,-76.3024,244835,279,23325 23324 23323 23322 23321 23320 23326 23327 23328,644.845,96500538,6299319,11.4,2,6
1840003869,Norfolk,Virginia,VA,Norfolk,51710,36.8945,-76.259,242742,1759,23509 23508 23507 23504 23503 23502 23505 23518 23510 23513 23517 23551 23523 23511 23501 23506 23514 23515 23519 23529 23541,644.845,96500538,6299319,11.9,6.1,6.1
1840020292,Fremont,California,CA,Alameda,6001,37.5265,-121.9852,241110,1201,94536 94538 94539 94555 94537,453.118,110674673,82279482,8.6,6.2,10.7
1840018481,Kennewick,Washington,WA,Benton,53005,46.1978,-119.1732,240735,1186,99337 99336 99338,213.274,28922609,87156565,14.5,5.3,103
1840020707,Garland,Texas,TX,Dallas,48113,32.91,-96.6305,239928,1623,75044 75041 75040 75043 75042 75046 75047 75049,857.519,369966928,103399309,13.2,4.8,8.9
1840019438,Irving,Texas,TX,Dallas,48113,32.8584,-96.9702,239798,1380,75063 75061 75060 75038 75039 75062 75014 75015 75016 75017 75059 75261 75326 75368,857.519,369966928,103399309,11.6,5.6,8.9
1840021639,Visalia,California,CA,Tulare,6107,36.3276,-119.3269,237386,1370,93277 93291 93292 93278 93279 93290,453.118,110674673,82279482,13.9,6.5,10.7
1840002984,Nashua,New Hampshire,NH,Hillsborough,33011,42.7491,-71.491,233917,1118,03062 03063 03060 03064 03061,247.895,13673378,2667595,11.1,3.5,5.9
1840015157,Hialeah,Florida,FL,Miami-Dade,12086,25.8696,-80.3046,233339,4174,33014 33016 33010 33012 33013 33018,842.169,238451609,12328825,17.9,6.9,7.9
1840013730,Evansville,Indiana,IN,Vanderburgh,18163,37.9881,-87.5341,230427,962,47708 47714 47715 47710 47711 47713 47701 47702 47703 47704 47705 47706 47716 47719 47722 47724 47728 47730 47731 47732 47733 47734 47735 47736 47737 47740 47747 47750,1549.45,82568218,7388006,15.2,3.6,9.1
1840019310,Avondale,Arizona,AZ,Maricopa,4013,33.3858,-112.3236,227289,750,85323 85392 85329,736.979,96114769,13190288,13.5,4.8,8.3
1840019743,Brownsville,Texas,TX,Cameron,48061,25.998,-97.4565,227239,533,78521 78520 78526 78575 78578,857.519,369966928,103399309,17.6,3.1,8
1840013947,Gulfport,Mississippi,MS,Harrison,28047,30.4271,-89.0703,220987,497,39501 39503 39507 39502 39505 39506,894.134,64651957,1847332,15.9,2.3,6.8
1840002400,Appleton,Wisconsin,WI,Outagamie,55087,44.2779,-88.3891,220570,1156,54914 54915 54913 54911 54912 54919,1192.01,55655306,5785231,11.7,3.9,7.4
1840021129,Tacoma,Washington,WA,Pierce,53053,47.2431,-122.4531,217827,1690,98422 98421 98402 98403 98404 98405 98408 98409 98406 98407 98465 98416 98418 98444 98401 98411 98412 98413 98415 98417 98419 98448 98471 98481 98490,213.274,28922609,87156565,13.5,6,8.7
1840021728,San Bernardino,California,CA,San Bernardino,6071,34.1417,-117.2946,215784,1341,92401 92407 92405 92408 92404 92411 92410 92346 92369 92403 92406 92413 92415 92418 92423 92427,453.118,110674673,82279482,18.4,6.7,8.2
1840019570,College Station,Texas,TX,Brazos,48041,30.5852,-96.296,215243,890,77845 77840 77841 77842 77843 77844 77881,857.519,369966928,103399309,8.3,1.6,8.3
1840003185,Kalamazoo,Michigan,MI,Kalamazoo,26077,42.2749,-85.5882,215193,1192,49001 49006 49007 49008 49074 49005 49019,938.031,96709974,9914747,13.8,4.7,7.6
1840021844,Thousand Oaks,California,CA,Ventura,6111,34.1914,-118.8755,215029,885,91320 91360 91361 91362 91319 91358 91359,453.118,110674673,82279482,11.1,2.5,10.7
1840003858,Roanoke,Virginia,VA,Roanoke,51770,37.2785,-79.958,214674,900,24014 24015 24016 24017 24011 24012 24013 24001 24002 24003 24004 24005 24006 24007 24008 24009 24010 24022 24023 24024 24025 24026 24027 24028 24029 24030 24031 24032 24033 24034 24035 24036 24037 24038 24040 24042 24043,644.845,96500538,6299319,14.9,4.7,6.2
1840020402,Fontana,California,CA,San Bernardino,6071,34.0968,-117.4599,214547,1923,92335 92336 92337 92331 92334 92402,453.118,110674673,82279482,14,5.5,8.2
1840020552,Moreno Valley,California,CA,Riverside,6065,33.9244,-117.2045,213055,1604,92551 92553 92555 92557 92552 92554 92556,453.118,110674673,82279482,13.6,4.4,10.6
1840000177,Fargo,North Dakota,ND,Cass,38017,46.8652,-96.8292,208675,967,58102 58104 58103 58105 58106 58107 58108 58109 58121 58122 58124 58125 58126,1388.14,26091656,16084768,9.1,4.1,6.4
1840002344,Green Bay,Wisconsin,WI,Brown,55009,44.515,-87.9896,207557,887,54311 54302 54304 54303 54301 54305 54306 54308,1192.01,55655306,5785231,13.5,4.4,7.3
1840019156,Amarillo,Texas,TX,Potter,48375,35.1988,-101.8311,205603,756,79121 79109 79101 79102 79103 79104 79106 79107 79118 79111 79110 79114 79116 79117 79120 79166 79168 79172 79174 79178 79189,857.519,369966928,103399309,13.7,2.3,8.8
1840000327,Portland,Maine,ME,Cumberland,23005,43.6773,-70.2715,203969,1185,04101 04102 04103 04108 04019 04109 04104 04112 04116 04122 04123 04124,228.179,2237749,7764122,10.3,6.1,5.9
1840021829,Santa Barbara,California,CA,Santa Barbara,6083,34.4285,-119.7202,202401,1808,93105 93101 93103 93109 93102 93106 93120 93121 93130 93140 93190,453.118,110674673,82279482,11.1,6.4,10.7
1840014022,Gainesville,Florida,FL,Alachua,12001,29.6804,-82.3458,202335,820,32609 32607 32612 32653 32608 32603 32601 32605 32604 32610 32611 32614 32627 32635,842.169,238451609,12328825,11.1,6.6,6.1
1840020654,Frisco,Texas,TX,Collin,48085,33.1555,-96.8215,200490,1136,75034 75035 75033 75036,857.519,369966928,103399309,8,0.1,8.9
1840003478,Yonkers,New York,NY,Westchester,36119,40.9466,-73.8674,200370,4295,10708 10703 10701 10705 10704 10707 10710 10702,416.695,91870655,37541300,12.7,8.9,7
1840020483,Glendale,California,CA,Los Angeles,6037,34.1818,-118.2468,199303,2525,91210 91214 91046 91201 91204 91208 91203 91202 91205 91207 91206 91020 91209 91221 91222 91225 91226,453.118,110674673,82279482,12.8,6.9,10.7
1840020578,Huntington Beach,California,CA,Orange,6059,33.696,-118.0025,199223,2848,92646 92647 92648 92649 90742 92605 92615,453.118,110674673,82279482,11.1,4.4,10.7
1840015072,Deltona,Florida,FL,Volusia,12127,28.905,-81.2137,198361,960,32725 32738 32739,842.169,238451609,12328825,14.6,2.3,8.1
1840007034,Aurora,Illinois,IL,Kane,17089,41.7637,-88.2901,197757,1696,60506 60504 60505 60502 60503 60519 60507 60568 60569 60572 60598 60599,556.444,156507019,16830687,11.6,3.4,8.1
1840021942,Tempe,Arizona,AZ,Maricopa,4013,33.3881,-111.9318,195805,1891,85281 85282 85283 85284 85280 85285 85287 85288,736.979,96114769,13190288,11,7.9,8.3
1840003834,Overland Park,Kansas,KS,Johnson,20091,38.887,-94.687,195494,1003,66214 66210 66211 66212 66213 66224 66221 66223 66209 66202 66207 66204 66062 66085 66201 66225 66276 66282 66283,804.193,30424312,24117519,8.3,2.5,7.8
1840020709,Grand Prairie,Texas,TX,Dallas,48113,32.6872,-97.0209,194543,1039,75052 75050 75051 75054 75053 75265,857.519,369966928,103399309,12.3,0.3,8.9
1840022140,Waco,Texas,TX,McLennan,48309,31.5598,-97.1881,192315,605,76798 76710 76711 76712 76708 76701 76707 76706 76704 76702 76703 76714 76797 76799,857.519,369966928,103399309,14.7,2.8,8.7
1840021632,Salinas,California,CA,Monterey,6053,36.6884,-121.6317,190972,2562,93901 93905 93906 93902 93915,453.118,110674673,82279482,15.3,5.3,10.7
1840004851,Waterbury,Connecticut,CT,New Haven,9009,41.5583,-73.0361,189614,1456,06708 06702 06704 06706 06705 06710 06701 06703 06720 06721 06722 06723 06724 06725 06726,529.766,39265173,1925399,15.8,5.6,7.9
1840014421,Clarksville,Tennessee,TN,Montgomery,47125,36.5695,-87.342,188746,618,42223 37043 37042 37040 37041 37044,571.407,66730539,13835471,13.3,1.2,8.1
1840000471,Cedar Rapids,Iowa,IA,Linn,19113,41.9665,-91.6782,188038,720,52404 52405 52402 52401 52411 52403 52406 52407 52408 52409 52410 52497 52498 52499,615.198,24199572,35437099,9.9,3.4,7.8
1840002648,Sioux Falls,South Dakota,SD,Minnehaha,46099,43.5397,-96.732,187239,907,57110 57104 57105 57106 57107 57103 57108 57197 57117 57101 57109 57186 57193,340.583,2758069,11388458,9.6,2.9,5.8
1840020410,Ontario,California,CA,San Bernardino,6071,34.0393,-117.6064,185010,1429,91762 91761 91764 91743 91758,453.118,110674673,82279482,14.4,5,10.7
1840000478,Erie,Pennsylvania,PA,Erie,42049,42.1168,-80.0733,184484,1926,16546 16510 16511 16508 16502 16507 16504 16503 16501 16512 16514 16522 16530 16534 16538 16541 16544 16550 16553,697.527,221360618,8774335,15.7,4.9,6.5
1840021189,Vancouver,Washington,WA,Clark,53011,45.6366,-122.5967,184463,1461,98684 98664 98665 98660 98661 98662 98663 98682 98683 98687,213.274,28922609,87156565,12.9,5.4,10.7
1840020041,Nampa,Idaho,ID,Canyon,16027,43.5845,-116.5631,184428,1167,83651 83686 83687,213.396,4229986,13444585,13.4,1.9,7.8
1840013468,Gastonia,North Carolina,NC,Gaston,37071,35.2494,-81.1853,182581,577,28054 28056 28052,648.445,105124842,19209423,14.9,2.2,4.8
1840014236,Fort Lauderdale,Florida,FL,Broward,12011,26.1412,-80.1464,182437,2036,33301 33304 33305 33306 33308 33309 33334 33316 33315 33312 33311 33320 33336 33338 33339 33340 33346 33348 33394,842.169,238451609,12328825,13.8,6.7,7
1840014495,Murfreesboro,Tennessee,TN,Rutherford,47149,35.8492,-86.4119,179951,919,37132 37130 37129 37128 37127 37131 37133,571.407,66730539,13835471,12.3,2,6
1840014479,High Point,North Carolina,NC,Guilford,37081,35.9907,-79.9938,179913,777,27282 27235 27262 27263 27265 27260 27261 27264 27268,648.445,105124842,19209423,13.7,2.9,8
1840003862,Newport News,Virginia,VA,Newport News,51700,37.1051,-76.5185,179225,1002,23601 23603 23608 23604 23605 23606 23607 23602 23609 23612 23628 23630,644.845,96500538,6299319,12.4,4.7,6.1
1840020411,Rancho Cucamonga,California,CA,San Bernardino,6071,34.1248,-117.5666,177603,1709,91730 91701 91739 91737 91729,453.118,110674673,82279482,11.6,5.1,10.7
1840020550,Hemet,California,CA,Riverside,6065,33.7341,-116.9969,177253,1125,92545 92543 92546,453.118,110674673,82279482,17.4,3.9,10.6
1840004837,Danbury,Connecticut,CT,Fairfield,9001,41.4016,-73.471,176030,779,06810 06811 06813,529.766,39265173,1925399,11.5,4,7.9
1840020567,Peoria,Arizona,AZ,Maricopa,4013,33.7844,-112.2989,175961,386,85381 85383 85382 85373 85345 85342 85380 85385,736.979,96114769,13190288,12.3,1.8,8
1840020623,Oceanside,California,CA,San Diego,6073,33.2247,-117.3083,175742,1644,92054 92057 92058 92056 92049 92051 92052 92068,453.118,110674673,82279482,13,5.9,10.7
1840020245,Elk Grove,California,CA,Sacramento,6067,38.416,-121.3842,174775,1605,95757 95758 95624 95759,453.118,110674673,82279482,10.7,3.9,11.5
1840015141,Pembroke Pines,Florida,FL,Broward,12011,26.0128,-80.3382,173591,2051,33029 33028 33024 33026 33023 33027 33025 33084,842.169,238451609,12328825,12.4,3.5,7.9
1840021499,Vallejo,California,CA,Solano,6095,38.1133,-122.2358,173256,1524,94592 94590 94591 94589,453.118,110674673,82279482,13.2,5,10.7
1840020577,Garden Grove,California,CA,Orange,6059,33.7787,-117.9601,171644,3690,92844 92843 92840 92841 92845 92842 92846,453.118,110674673,82279482,13.6,5.5,12
1840020076,Medford,Oregon,OR,Jackson,41029,42.3372,-122.8537,170876,1243,97504 97501,341.611,20652012,42972770,16.2,4,10.2
1840016196,Cary,North Carolina,NC,Wake,37183,35.782,-78.8191,170282,1119,27560 27511 27518 27519 27513 27512,648.445,105124842,19209423,8.4,3,6.4
1840019305,Corona,California,CA,Riverside,6065,33.8616,-117.5649,169868,1640,92882 92880 92881 92879 92877 92878,453.118,110674673,82279482,11.8,2.5,10.7
1840002983,Manchester,New Hampshire,NH,Hillsborough,33011,42.9848,-71.4447,162877,1315,03109 03104 03101 03103 03102 03105 03108 03111,247.895,13673378,2667595,12.2,3,5.9
1840007239,Champaign,Illinois,IL,Champaign,17019,40.1144,-88.2735,159443,1503,61822 61820 61821 61824 61825 61826,556.444,156507019,16830687,10.1,7.9,8.2
1840003837,Alexandria,Virginia,VA,Alexandria,51510,38.8185,-77.0861,159428,4121,22302 22301 22304 22305 22311 22314 20598 22320 22331 22332 22333 22334,644.845,96500538,6299319,8.9,8.6,6.3
1840020293,Hayward,California,CA,Alameda,6001,37.6328,-122.0772,159203,1349,94541 94542 94545 94544 94540 94543 94557,453.118,110674673,82279482,11.7,7.4,10.5
1840009517,Springfield,Illinois,IL,Sangamon,17167,39.771,-89.6538,158509,723,62711 62712 62702 62703 62701 62707 62704 62705 62706 62715 62716 62719 62722 62726 62736 62739 62756 62757 62761 62762 62763 62764 62765 62766 62767 62769 62776 62777 62781 62786 62796,556.444,156507019,16830687,13.2,4.2,7.1
1840020198,Lakewood,Colorado,CO,Jefferson,8059,39.6977,-105.1168,157935,1416,80465 80232 80235 80214 80215 80227 80226 80228 80201 80225,1219.24,37218614,16573573,10.4,6.4,6.8
1840008354,Lafayette,Indiana,IN,Tippecanoe,18157,40.399,-86.8594,157820,942,47909 47905 47904 47901 47902 47903,1549.45,82568218,7388006,12.7,5.4,9.1
1840015039,Lake Charles,Louisiana,LA,Calcasieu,22019,30.2012,-93.2122,156181,674,70605 70607 70601 70615 70602 70606 70609 70612 70616 70629,761.738,97195892,3358812,15.2,2.1,7.5
1840020794,Odessa,Texas,TX,Ector,48135,31.8831,-102.3406,155998,1052,79761 79762 79763 79765 79768 79769,857.519,369966928,103399309,12.9,2.5,8.9
1840005563,Tuscaloosa,Alabama,AL,Tuscaloosa,1125,33.2348,-87.5267,155499,631,35475 35476 35405 35404 35406 35401 35403 35407 35486 35487,721.058,119834631,17007402,12.9,1.8,6.5
1840015800,Warner Robins,Georgia,GA,Houston,13153,32.597,-83.6529,155140,805,31088 31005 31093 31099,723.513,105671813,13921563,13.1,0,8.7
1840020502,Palmdale,California,CA,Los Angeles,6037,34.5944,-118.1057,155079,564,93552 93550 93591 93551 93590 93599,453.118,110674673,82279482,14.9,0.3,10.7
1840015144,Hollywood,Florida,FL,Broward,12011,26.0294,-80.1679,154817,2192,33019 33024 33023 33021 33020 33004 33316 33312 33022 33081 33082 33302,842.169,238451609,12328825,14.3,6,7.9
1840020792,Midland,Texas,TX,Midland,48329,32.0249,-102.1137,154793,758,79701 79706 79707 79705 79703 79702 79708 79711,857.519,369966928,103399309,11.6,2.6,8.9
1840043455,Macon,Georgia,GA,Bibb,13021,32.8065,-83.6974,153159,237,31206 31052 31210 31211 31213 31216 31217 31207 31204 31201 31220 31202 31203 31205 31208 31209 31221 31294 31295 31296 31297,723.513,105671813,13921563,15.7,2.1,7.8
1840001626,Kansas City,Kansas,KS,Wyandotte,20209,39.1234,-94.7443,152960,473,66101 66102 66103 66104 66105 66106 66109 66115 66112 66111 66118 66110 66117 66119 66160,804.193,30424312,24117519,16.2,3.6,7.8
1840021573,Sunnyvale,California,CA,Santa Clara,6085,37.3836,-122.0256,152703,2676,95002 94089 94085 94086 94087 94088,453.118,110674673,82279482,8.6,7.2,10.5
1840020507,Pomona,California,CA,Los Angeles,6037,34.0585,-117.7626,151691,2548,91766 91767 91768 91769,453.118,110674673,82279482,14.3,6,10.7
1840020620,Escondido,California,CA,San Diego,6073,33.1347,-117.0722,151625,1568,92029 92025 92026 92027 92030 92033 92046,453.118,110674673,82279482,14.4,5.2,10.7
1840020930,Pasadena,Texas,TX,Harris,48201,29.6583,-95.1499,151227,1339,77058 77059 77586 77506 77507 77504 77505 77502 77503 77258 77501 77508,857.519,369966928,103399309,14.3,0.1,8.7
1840003219,New Bedford,Massachusetts,MA,Bristol,25005,41.6697,-70.9428,149910,1840,02740 02744 02745 02746 02741 02742,879.901,14202265,3992900,17,3.7,6.3
1840020253,Fairfield,California,CA,Solano,6095,38.2592,-122.0324,148683,1097,94585 94533 94534 94535,453.118,110674673,82279482,12.4,4.1,10.7
1840008143,Naperville,Illinois,IL,DuPage,17043,41.7483,-88.1657,148449,1476,60540 60563 60564 60565 60567,556.444,156507019,16830687,7.9,3.5,8.1
1840018417,Bellevue,Washington,WA,King,53033,47.5951,-122.1535,148164,1709,98004 98005 98006 98007 98008 98009 98015,213.274,28922609,87156565,8.2,6.3,9.1
1840001621,Topeka,Kansas,KS,Shawnee,20177,39.0346,-95.6955,147458,787,66621 66622 66609 66608 66607 66606 66605 66604 66603 66611 66612 66614 66616 66601 66624 66625 66626 66629 66636 66647 66667 66675 66683 66699,804.193,30424312,24117519,13,3.4,7.8
1840008192,Joliet,Illinois,IL,Will,17197,41.5189,-88.1499,147344,886,60421 60586 60432 60433 60431 60436 60435 60434,556.444,156507019,16830687,12.2,3.1,8.1
1840019612,Beaumont,Texas,TX,Jefferson,48245,30.0849,-94.1451,146091,547,77708 77705 77706 77707 77701 77702 77703 77713 77704 77710 77720 77725 77726,857.519,369966928,103399309,14.1,3.2,8.3
1840000838,Paterson,New Jersey,NJ,Passaic,34031,40.9147,-74.1624,145233,6665,07524 07522 07514 07513 07505 07502 07504 07501 07503 07507 07509 07510 07533 07543 07544,492.293,58578058,2528400,17.8,7.4,7.6
1840020313,Merced,California,CA,Merced,6047,37.3057,-120.4778,145149,1390,95348 95340 95341 95343,453.118,110674673,82279482,16.6,4.7,10.7
1840020255,Pueblo,Colorado,CO,Pueblo,8101,38.2705,-104.6112,143932,789,81004 81005 81003 81001 81008 81002 81010 81011 81012,1219.24,37218614,16573573,15,3.3,7.4
1840022076,Tyler,Texas,TX,Smith,48423,32.3184,-95.3062,143796,718,75709 75702 75703 75701 75710 75712 75713 75798 75799,857.519,369966928,103399309,13.7,2.2,8.7
1840021873,Torrance,California,CA,Los Angeles,6037,33.8346,-118.3417,143592,2701,90277 90501 90503 90505 90504 90507 90508 90509 90510,453.118,110674673,82279482,9.8,6.1,10.7
1840021998,Yuma,Arizona,AZ,Yuma,4027,32.5992,-114.5488,142847,313,85365 85364 85369,736.979,96114769,13190288,14.2,2.8,6
1840021941,Surprise,Arizona,AZ,Maricopa,4013,33.68,-112.4524,141664,506,85361 85379 85388 85387 85374 85375 85378,736.979,96114769,13190288,12.7,0,8.3
1840007391,Columbia,Missouri,MO,Boone,29019,38.9478,-92.3256,141645,725,65202 65203 65201 65215 65211 65216 65217 65218 65299,1618.42,66442664,5428458,10.5,3.5,7.9
1840029463,Athens,Georgia,GA,Clarke,13059,33.9508,-83.3689,141532,421,30622 30601 30602 30605 30606 30607 30609 30683 30603 30608 30612,723.513,105671813,13921563,11.8,3.7,6.1
1840020233,Roseville,California,CA,Placer,6061,38.7703,-121.3196,141500,1239,95661 95747 95678,453.118,110674673,82279482,11.3,3.2,11.5
1840021422,Thornton,Colorado,CO,Adams,8001,39.9197,-104.9438,141464,1521,80260 80233 80241 80602 80640 80023 80229 80614,1219.24,37218614,16573573,10.5,3.8,6.8
1840015137,Miramar,Florida,FL,Broward,12011,25.9773,-80.3351,141191,1889,33029 33023 33027 33025,842.169,238451609,12328825,11.7,4,7.9
1840020505,Pasadena,California,CA,Los Angeles,6037,34.1597,-118.139,141029,2371,91101 91106 91107 91105 91103 91104 91102 91109 91110 91114 91115 91116 91117 91121 91123 91124 91125 91126 91129 91182 91184 91188 91189 91199,453.118,110674673,82279482,11.2,8.3,10.7
1840020713,Mesquite,Texas,TX,Dallas,48113,32.7623,-96.5889,140937,1151,75149 75150 75181 75185 75187,857.519,369966928,103399309,13.3,0.6,8.9
1840021830,Santa Maria,California,CA,Santa Barbara,6083,34.9334,-120.4432,140545,1815,93454 93455 93458,453.118,110674673,82279482,15.2,4.3,7.9
1840003833,Olathe,Kansas,KS,Johnson,20091,38.8832,-94.8198,140545,880,66062 66061 66051 66063,804.193,30424312,24117519,8.8,1.4,10.7
1840019436,Carrollton,Texas,TX,Dallas,48113,32.989,-96.8999,139248,1466,75007 75006 75010 75011,857.519,369966928,103399309,11,3.9,8.9
1840006196,Charleston,West Virginia,WV,Kanawha,54039,38.3484,-81.6323,138706,570,25305 25304 25303 25302 25301 25311 25312 25314 25317 25321 25322 25323 25324 25325 25326 25327 25328 25329 25330 25331 25332 25333 25334 25335 25336 25337 25338 25339 25350 25364 25375 25387 25392 25396,1924.73,53165248,3496285,15.8,2.7,7
1840020582,Orange,California,CA,Orange,6059,33.8038,-117.8218,138669,2086,92868 92869 92866 92867 92865 92856 92857 92863 92864,453.118,110674673,82279482,11.7,5.1,10.7
1840020576,Fullerton,California,CA,Orange,6059,33.8841,-117.9279,138632,2386,92833 92831 92835 92832 92834 92836 92837 92838,453.118,110674673,82279482,11.5,4.8,12
1840020149,Greeley,Colorado,CO,Weld,8123,40.4151,-104.7706,137810,858,80634 80631 80632 80633 80638 80639,1219.24,37218614,16573573,11.9,3.3,8.7
1840020683,Las Cruces,New Mexico,NM,Do,35013,32.3265,-106.7892,136254,519,88012 88011 88005 88007 88001 87654 88006 88013,1259.87,24755709,9250130,13,3,5.8
1840021389,West Valley City,Utah,UT,Salt Lake,49035,40.6889,-112.0115,135248,1472,84119 84120 84128 84118 84125 84126 84127 84129 84130 84131 84170,1565.76,32442621,4644687,13.1,7.1,7
1840003866,Hampton,Virginia,VA,Hampton,51650,37.0551,-76.363,134510,1009,23666 23651 23605 23669 23661 23663 23664 23665 23667 23668 23670 23681,644.845,96500538,6299319,13,4.8,6.1
1840002418,Warren,Michigan,MI,Macomb,26099,42.4934,-83.027,133943,1505,48093 48092 48091 48089 48088 48397,938.031,96709974,9914747,16,3.7,9.1
1840007207,Bloomington,Illinois,IL,McLean,17113,40.4757,-88.9703,133846,1100,61701 61705 61704 61709 61710 61791,556.444,156507019,16830687,10.6,4.7,8.2
1840015134,Coral Springs,Florida,FL,Broward,12011,26.2702,-80.2591,133759,2258,33071 33076 33065 33067 33075 33077,842.169,238451609,12328825,11.8,5,7.9
1840020879,Round Rock,Texas,TX,Williamson,48491,30.5254,-97.666,133372,1421,78681 78664 78665 78682 78683,857.519,369966928,103399309,9.5,1.4,8
1840021154,Yakima,Washington,WA,Yakima,53077,46.5923,-120.5496,133191,1300,98901 98903 98902 98908 98904 98907,213.274,28922609,87156565,16.6,4.8,12.3
1840003094,Sterling Heights,Michigan,MI,Macomb,26099,42.5809,-83.0305,132438,1403,48310 48313 48312 48314 48311,938.031,96709974,9914747,13.9,2.3,7.8
1840018424,Kent,Washington,WA,King,53033,47.3887,-122.2129,132319,1513,98031 98030 98032 98042 98035 98064 98089,213.274,28922609,87156565,12.3,5.1,9.1
1840018346,Bellingham,Washington,WA,Whatcom,53073,48.7543,-122.4687,130641,1287,98229 98225 98226 98228,213.274,28922609,87156565,11.8,6,8.7
1840021571,Santa Clara,California,CA,Santa Clara,6085,37.3645,-121.968,130365,2761,95054 95050 95051 95053 95052 95055 95056,453.118,110674673,82279482,9,7,10.5
1840002493,Racine,Wisconsin,WI,Racine,55101,42.7274,-87.8135,130142,1915,53405 53404 53406 53403 53402 53401 53407 53408,1192.01,55655306,5785231,14.7,5.8,8.5
1840013407,Greenville,North Carolina,NC,Pitt,37147,35.5956,-77.3768,130118,1012,27834 27858 27833 27835 27836,648.445,105124842,19209423,11.2,2.3,4.8
1840004841,Stamford,Connecticut,CT,Fairfield,9001,41.1035,-73.5583,129638,1330,06906 06907 06905 06902 06903 06901 06904 06910 06911 06912 06913 06914 06926 06927,529.766,39265173,1925399,10,6.6,7.9
1840003613,Elizabeth,New Jersey,NJ,Union,34039,40.6657,-74.1912,129216,4049,07208 07202 07201 07206 07207,492.293,58578058,2528400,15.6,6.5,7.6
1840003855,Lynchburg,Virginia,VA,Lynchburg,51680,37.4003,-79.1909,126814,647,24504 24502 24503 24501 24505 24506 24513 24514,644.845,96500538,6299319,12.6,3.6,6.2
1840021843,Simi Valley,California,CA,Ventura,6111,34.2663,-118.749,126589,1167,93063 93065 93062 93094 93099,453.118,110674673,82279482,11.6,3.5,10.7
1840013456,Fort Smith,Arkansas,AR,Sebastian,5131,35.3493,-94.3695,125354,536,72901 72904 72908 72903 72923 72916 72905 72906 72913 72914 72917 72918 72919,951.287,48839978,5801281,17.6,2,8.2
1840003160,Kenosha,Wisconsin,WI,Kenosha,55059,42.5864,-87.8765,124972,1378,53144 53140 53142 53143 53141,1192.01,55655306,5785231,13,4.6,8
1840020451,Norman,Oklahoma,OK,Cleveland,40027,35.2335,-97.3471,124880,269,73019 73026 74857 73072 73071 73069 73068 73070,708.652,49722083,32575748,11.8,2.2,8.1
1840018774,Boulder,Colorado,CO,Boulder,8013,40.0249,-105.2523,124345,1551,80310 80304 80305 80302 80303 80301 80307 80309 80314,1219.24,37218614,16573573,7.8,7.3,8
1840019476,Abilene,Texas,TX,Taylor,48441,32.4543,-99.7384,123420,446,79605 79699 79603 79601 79607 79606 79602 79604 79608 79697 79698,857.519,369966928,103399309,13.1,2.3,8.9
1840020979,Pearland,Texas,TX,Brazoria,48039,29.5585,-95.3215,122460,981,77047 77089 77584 77581 77588,857.519,369966928,103399309,9.2,0.1,8.7
1840018914,Berkeley,California,CA,Alameda,6001,37.8723,-122.276,121363,4473,94708 94707 94705 94704 94703 94702 94709 94710 94720 94701 94712,453.118,110674673,82279482,9.3,8.8,10.5
1840020710,Richardson,Texas,TX,Dallas,48113,32.9717,-96.7093,121323,1639,75081 75080 75082 75045 75083 75085,857.519,369966928,103399309,9.6,6,8.9
1840020141,Redding,California,CA,Shasta,6089,40.5698,-122.365,121313,599,96002 96003 96001,453.118,110674673,82279482,14.4,2.8,11
1840018788,Arvada,Colorado,CO,Jefferson,8059,39.8321,-105.1511,121272,1207,80005 80004 80007 80003 80002 80403 80001 80006,1219.24,37218614,16573573,10.1,4.6,8
1840021559,St. George,Utah,UT,Washington,49053,37.077,-113.577,120899,449,84770 84790 84791,1565.76,32442621,4644687,12.5,2.3,7.6
1840018496,Billings,Montana,MT,Yellowstone,30111,45.7891,-108.5524,120728,948,59106 59105 59102 59101 59104 59107 59108 59115 59116 59117,912.637,9481171,13872119,11.9,3.7,6.6
1840008987,Rochester,Minnesota,MN,Olmsted,27109,44.0151,-92.4778,119942,831,55902 55901 55906 55904 55905,770.366,40636378,15864248,9.2,0.4,5.8
1840007685,Duluth,Minnesota,MN,St. Louis,27137,46.7756,-92.1392,119476,461,55803 55802 55805 55804 55808 55810 55811 55812 55807 55806 55815 55816,770.366,40636378,15864248,10.9,5.4,5.8
1840014618,Rock Hill,South Carolina,SC,York,45091,34.9416,-81.0244,119105,750,29732 29733 29730 29731,513.861,91547963,6980834,12.4,0.2,7.7
1840000429,Cambridge,Massachusetts,MA,Middlesex,25017,42.3759,-71.1185,118927,7182,02142 02140 02141 02139 02138 02238 02477,879.901,14202265,3992900,7.6,9.1,5.9
1840022217,Sugar Land,Texas,TX,Fort Bend,48157,29.5935,-95.6357,118488,1130,77498 77478 77479 77487 77496,857.519,369966928,103399309,8.9,0,10.1
1840000532,Iowa City,Iowa,IA,Johnson,19103,41.6559,-91.5303,118041,1133,52245 52246 52240 52242 52243 52244,615.198,24199572,35437099,8.3,5.5,7.8
1840018778,Chico,California,CA,Butte,6007,39.7575,-121.8152,117668,1191,95973 95926 95928 95927 95929 95976,453.118,110674673,82279482,12.2,5.1,9.3
1840015110,Clearwater,Florida,FL,Pinellas,12103,27.9789,-82.7622,116946,1731,33755 33759 33756 33763 33761 33767 33764 33765 33757 33758 33766 33769,842.169,238451609,12328825,14.5,4.7,7.9
1840008534,Independence,Missouri,MO,Jackson,29095,39.0871,-94.3501,116672,577,64054 64055 64056 64057 64050 64052 64053 64015 64016 64051,1618.42,66442664,5428458,14.9,3.1,7.9
1840021388,West Jordan,Utah,UT,Salt Lake,49035,40.6024,-112.0008,116480,1391,84088 84081 84084,1565.76,32442621,4644687,10.5,6.8,7
1840007376,Bloomington,Indiana,IN,Monroe,18105,39.1637,-86.5257,115884,1424,47406 47408 47401 47403 47404 47405 47407,1549.45,82568218,7388006,10.4,4.9,8.6
1840020480,El Monte,California,CA,Los Angeles,6037,34.0739,-118.0291,115487,4663,91732 91731 91733 91734 91735,453.118,110674673,82279482,15.8,7.2,11.2
1840019352,Carlsbad,California,CA,San Diego,6073,33.1247,-117.2837,115382,1180,92008 92009 92011 92010 92013 92018,453.118,110674673,82279482,10.3,3.7,7
1840015164,North Charleston,South Carolina,SC,Charleston,45019,32.9066,-80.0722,115382,574,29423 29420 29456 29485 29483 29404 29405 29406 29418 29416 29419,513.861,91547963,6980834,14.2,3.3,10.7
1840021937,Temecula,California,CA,Riverside,6065,33.4928,-117.1315,114761,1188,92590 92591 92592 92589 92593,453.118,110674673,82279482,10.6,2.2,10.6
1840018944,Clovis,California,CA,Fresno,6019,36.8278,-119.6831,114584,1741,93611 93612 93619 93613 93747,453.118,110674673,82279482,12.1,1.1,10.7
1840020046,Meridian,Idaho,ID,Ada,16001,43.6112,-116.3968,114161,1297,83646 83642 83680,213.396,4229986,13444585,9.7,0.4,7.8
1840021423,Westminster,Colorado,CO,Adams,8001,39.8837,-105.0624,113166,1383,80030 80031 80234 80005 80003 80021 80020 80035,1219.24,37218614,16573573,9.7,5.3,8
1840019326,Costa Mesa,California,CA,Orange,6059,33.6667,-117.9135,113003,2762,92626 92627 92628,453.118,110674673,82279482,11.6,5.4,10.7
1840015143,Pompano Beach,Florida,FL,Broward,12011,26.2428,-80.1312,112118,1802,33069 33060 33062 33064 33061 33072 33074 33097,842.169,238451609,12328825,16,6.2,7.9
1840015993,West Palm Beach,Florida,FL,Palm Beach,12099,26.7468,-80.1316,111955,803,33411 33412 33417 33409 33407 33405 33401 33402 33422,842.169,238451609,12328825,14.2,5,7
1840000440,Waterloo,Iowa,IA,Black Hawk,19013,42.492,-92.3522,111631,423,50707 50703 50702 50701,615.198,24199572,35437099,12.2,2.4,7.5
1840019785,Everett,Washington,WA,Snohomish,53061,47.9525,-122.1669,111475,1296,98207 98204 98205 98203 98201 98208 98275 98206 98213,213.274,28922609,87156565,13.3,6.4,8.7
1840021707,Santa Fe,New Mexico,NM,Santa Fe,35049,35.6619,-105.9819,111269,625,87505 87507 87501 87502 87503 87509,1259.87,24755709,9250130,12.7,4.9,6.3
1840019245,Downey,California,CA,Los Angeles,6037,33.9379,-118.1312,111126,3457,90242 90240 90241 90239,453.118,110674673,82279482,12.2,6.9,10.7
1840000426,Lowell,Massachusetts,MA,Middlesex,25017,42.6389,-71.3217,110997,3149,01851 01850 01852 01854 01853,879.901,14202265,3992900,14.1,6.3,6.5
1840018792,Centennial,Colorado,CO,Arapahoe,8005,39.5926,-104.8674,110937,1448,80122 80121 80112 80016 80015 80111 80155 80161,1219.24,37218614,16573573,8.8,4.3,8
1840008134,Elgin,Illinois,IL,Kane,17089,42.0385,-88.3229,110849,1141,60120 60123 60124 60121 60122,556.444,156507019,16830687,11.6,4.8,8.1
1840020277,Richmond,California,CA,Contra Costa,6013,37.9477,-122.339,110567,1420,94530 94850 94801 94803 94804 94805 94806 94802 94807 94808,453.118,110674673,82279482,14,7.2,10.7
1840019059,Broken Arrow,Oklahoma,OK,Tulsa,40143,36.0365,-95.7809,110198,688,74014 74011 74012 74013,708.652,49722083,32575748,11.8,1,8.1
1840015151,Miami Gardens,Florida,FL,Miami-Dade,12086,25.9433,-80.2426,110001,2329,33014 33169 33055 33056 33054 33269,842.169,238451609,12328825,16.5,7.1,7.9
1840018618,Bend,Oregon,OR,Deschutes,41017,44.0562,-121.3087,109802,1171,97702 97701 97703 97708 97709,341.611,20652012,42972770,12.1,3.8,10.2
1840002310,Burlington,Vermont,VT,Chittenden,50007,44.4877,-73.2314,109763,1604,05405 05401 05408 05406,30.31,1231,2153687,10.6,5.8,5.5
1840015609,Sandy Springs,Georgia,GA,Fulton,13121,33.9366,-84.3703,109452,1122,30339 30350 30327 30328 30342 30358 31150 31156,723.513,105671813,13921563,8.3,5.3,8.2
1840019939,Gresham,Oregon,OR,Multnomah,41051,45.5023,-122.4413,109381,1808,97030 97233 97230 97080,341.611,20652012,42972770,15.9,7.9,10.7
1840020639,Lewisville,Texas,TX,Denton,48121,33.0452,-96.9823,109212,1148,75067 75056 75057 75077 75065 75029,857.519,369966928,103399309,10.5,2.9,8.9
1840019932,Hillsboro,Oregon,OR,Washington,41067,45.5272,-122.9361,109128,1640,97006 97123 97124 97129,341.611,20652012,42972770,11.4,7.7,10.7
1840037414,San Buenaventura,California,CA,Ventura,6111,34.2741,-119.2314,109106,1925,93004 93001 93003 93002 93005 93006 93007 93009,453.118,110674673,82279482,12.7,5.2,10.7
1840014653,Jacksonville,North Carolina,NC,Onslow,37133,34.7288,-77.3941,108856,574,28546 28547 28543 28540 28541 28542 28545,648.445,105124842,19209423,9.4,2.2,6.8
1840019237,Inglewood,California,CA,Los Angeles,6037,33.9566,-118.3444,108151,4604,90305 90304 90303 90302 90301 90306 90307 90308 90309 90311 90312,453.118,110674673,82279482,14.9,7.7,10.7
1840020973,League City,Texas,TX,Galveston,48167,29.4873,-95.1087,107536,809,77573 77598 77511 77539 77565 77574 77592,857.519,369966928,103399309,9.3,0,10.1
1840021533,Turlock,California,CA,Stanislaus,6099,37.5053,-120.8588,107317,1679,95380 95382 95381,453.118,110674673,82279482,14.1,4.3,10.7
1840000447,Sioux City,Iowa,IA,Woodbury,19193,42.4959,-96.3901,106455,545,51106 51104 51105 51103 51101 51108 51109 51111,615.198,24199572,35437099,11.5,3.5,7.5
1840017272,Davie,Florida,FL,Broward,12011,26.0789,-80.287,106306,1175,33324 33325 33331 33330 33328 33317 33314 33355,842.169,238451609,12328825,11.9,2.6,7
1840018926,Daly City,California,CA,San Mateo,6081,37.6862,-122.4685,106280,5370,94015 94014 94016 94017,453.118,110674673,82279482,10.4,8.4,10.7
1840019396,Allen,Texas,TX,Collin,48085,33.1088,-96.6735,105623,1544,75002 75013,857.519,369966928,103399309,9.1,0.5,8.9
1840021876,West Covina,California,CA,Los Angeles,6037,34.0555,-117.9112,105101,2529,91792 91791 91790 91793,453.118,110674673,82279482,11.4,6.3,10.7
1840021337,Sparks,Nevada,NV,Washoe,32031,39.5729,-119.7157,105006,1131,89436 89434 89431 89432 89435 89437,716.623,28728879,11606341,13.3,3,11
1840021923,Wichita Falls,Texas,TX,Wichita,48485,33.9072,-98.5291,104683,561,76308 76310 76311 76309 76306 76305 76302 76301 76307,857.519,369966928,103399309,13.6,2.5,8.7
1840021551,San Mateo,California,CA,San Mateo,6081,37.5521,-122.3122,104430,3312,94404 94401 94402 94403 94497,453.118,110674673,82279482,10.3,7.2,10.7
1840020501,Norwalk,California,CA,Los Angeles,6037,33.9069,-118.0829,103949,4133,90650 90651 90652,453.118,110674673,82279482,13.1,7.2,10.7
1840020407,Rialto,California,CA,San Bernardino,6071,34.1174,-117.3894,103526,1665,92316 92376 92377,453.118,110674673,82279482,15.7,6,8.2
1840020265,Manteca,California,CA,San Joaquin,6077,37.7927,-121.2264,103420,1498,95337 95336,453.118,110674673,82279482,13.7,0.8,10.5
1840020618,El Cajon,California,CA,San Diego,6073,32.8017,-116.9605,102708,2732,92020 92021 92019,453.118,110674673,82279482,15.9,6.9,10.9
1840019233,Burbank,California,CA,Los Angeles,6037,34.1879,-118.3235,102511,2285,91506 91504 91505 91502 91501 91503 91507 91508 91510 91521 91522 91523 91526,453.118,110674673,82279482,11.2,6.8,10.7
1840020178,Longmont,Colorado,CO,Boulder,8013,40.1686,-105.1005,102474,1306,80501 80503 80504,1219.24,37218614,16573573,10.1,4.3,8
1840019827,Renton,Washington,WA,King,53033,47.4784,-122.1919,101751,1676,98059 98058 98057 98056 98055,213.274,28922609,87156565,10.4,5.4,9.1
1840021994,Vista,California,CA,San Diego,6073,33.1896,-117.2386,101638,2093,92084 92083 92081 92085,453.118,110674673,82279482,13.3,6.1,10.7
1840021498,Vacaville,California,CA,Solano,6095,38.359,-121.968,101444,1330,95687 95688,453.118,110674673,82279482,12.2,4.9,10.7
1840021020,Edinburg,Texas,TX,Hidalgo,48215,26.3197,-98.1596,101170,873,78539 78542 78541 78540,857.519,369966928,103399309,13.6,1.3,8
1840007260,Carmel,Indiana,IN,Hamilton,18057,39.965,-86.146,101068,795,46290 46032 46033 46280 46082,1549.45,82568218,7388006,8.7,0,10.1
1840021094,Spokane Valley,Washington,WA,Spokane,53063,47.6626,-117.2346,101060,1034,99206 99016 99212 99216 99037 99211 99213 99215,213.274,28922609,87156565,13.5,5,103
1840022146,San Angelo,Texas,TX,Tom Green,48451,31.4424,-100.4506,101004,653,76905 76904 76901 76903 76908 76886 76902 76906 76909,857.519,369966928,103399309,12.8,1.9,8.7
1840020746,Longview,Texas,TX,Gregg,48183,32.5193,-94.7621,100330,565,75602 75601 75605 75604 75606 75608 75615 75660,857.519,369966928,103399309,14.7,2.3,8.9
1840021518,Tracy,California,CA,San Joaquin,6077,37.7269,-121.4522,100049,1412,95377 95376 95304,453.118,110674673,82279482,11.9,3.3,10.7
1840014207,Boca Raton,Florida,FL,Palm Beach,12099,26.3752,-80.108,99805,1320,33496 33487 33486 33432 33433 33431 33434 33427 33429 33481 33499,842.169,238451609,12328825,11.3,3.9,8.2
1840032155,Lee's Summit,Missouri,MO,Jackson,29095,38.9172,-94.3816,99357,601,64086 64082 64064 64063 64081 64002,1618.42,66442664,5428458,10.4,0.4,7.9
1840020387,Rio Rancho,New Mexico,NM,Sandoval,35043,35.2872,-106.6981,99178,370,87124 87121 87144 87174,1259.87,24755709,9250130,12.2,0.9,6.3
1840018556,Beaverton,Oregon,OR,Washington,41067,45.4779,-122.8168,99037,1952,97225 97005 97007 97006 97008 97075 97076 97077 97079,341.611,20652012,42972770,11.4,7.5,10.7
1840001632,Lawrence,Kansas,KS,Douglas,20045,38.9597,-95.2641,98648,1110,66045 66044 66047 66046 66049,804.193,30424312,24117519,9.3,5.5,7.9
1840020171,Orem,Utah,UT,Utah,49049,40.2983,-111.6992,97828,2044,84097 84057 84058 84059,1565.76,32442621,4644687,9.9,6.3,7.7
1840021991,San Marcos,California,CA,San Diego,6073,33.135,-117.1744,96664,1532,92078 92069 92079 92096,453.118,110674673,82279482,12.2,4.8,10.7
1840037422,Sandy,Utah,UT,Salt Lake,49035,40.571,-111.8505,96380,1544,84092 84093 84094 84070 84090 84091,1565.76,32442621,4644687,10.2,5.8,7
1840019826,Federal Way,Washington,WA,King,53033,47.3091,-122.3358,96289,1667,98023 98001 98003 98063 98093,213.274,28922609,87156565,12,5,9.1
1840020404,Hesperia,California,CA,San Bernardino,6071,34.3975,-117.3147,95750,508,92345 92344 92340,453.118,110674673,82279482,17,2.4,8.2
1840000467,Brockton,Massachusetts,MA,Plymouth,25023,42.0821,-71.0242,95708,1732,02301 02302 02303 02304 02305,879.901,14202265,3992900,15.4,6.2,5.9
1840019240,Compton,California,CA,Los Angeles,6037,33.893,-118.2275,95605,3680,90220 90221 90222 90223,453.118,110674673,82279482,16.8,7.7,10.7
1840010496,Fishers,Indiana,IN,Hamilton,18057,39.9589,-85.9661,95310,1037,46038 46040 46256 46037 46085,1549.45,82568218,7388006,8,0,8
1840016000,Sunrise,Florida,FL,Broward,12011,26.1547,-80.2997,95166,2270,33322 33323 33326 33351 33313 33307 33345,842.169,238451609,12328825,13.7,5.5,7
1840014741,Roswell,Georgia,GA,Fulton,13121,34.0391,-84.3513,94763,898,30076 30075 30077,723.513,105671813,13921563,9.1,2.2,7.7
1840022903,Menifee,California,CA,Riverside,6065,33.6909,-117.1849,94756,787,92587 92586 92585 92584 92564,453.118,110674673,82279482,13.7,2.7,10.6
1840015142,Plantation,Florida,FL,Broward,12011,26.126,-80.2617,94580,1685,33322 33323 33324 33325 33317 33313 33318 33329 33337 33388,842.169,238451609,12328825,11.7,5.7,7
1840000461,Quincy,Massachusetts,MA,Norfolk,25021,42.2516,-71.0183,94470,2200,02169 02171 02170 02269,879.901,14202265,3992900,10.9,7.1,5.9
1840003872,Portsmouth,Virginia,VA,Portsmouth,51740,36.8468,-76.354,94398,1094,23709 23708 23704 23707 23701 23703 23702 23705,644.845,96500538,6299319,14.1,3.9,6.1
1840019114,Chino,California,CA,San Bernardino,6071,33.9836,-117.6654,94371,1229,91710 91708,453.118,110674673,82279482,12.7,4.7,10.7
1840000409,Lynn,Massachusetts,MA,Essex,25009,42.4779,-70.9663,94299,3388,01905 01904 01902 01901 01903 01910,879.901,14202265,3992900,13.8,7.4,6.5
1840020423,Edmond,Oklahoma,OK,Oklahoma,40109,35.6689,-97.4159,94054,428,73012 73013 73007 73003 73034,708.652,49722083,32575748,10.4,1.7,8.2
1840003969,Dearborn,Michigan,MI,Wayne,26163,42.3127,-83.2129,93932,1496,48128 48120 48126 48124 48121 48123,938.031,96709974,9914747,17,5.1,8.2
1840003985,Livonia,Michigan,MI,Wayne,26163,42.3972,-83.3733,93665,1013,48152 48150 48154 48151 48153,938.031,96709974,9914747,12.2,0.4,8.2
1840021870,South Gate,California,CA,Los Angeles,6037,33.9448,-118.1926,93444,4985,90280,453.118,110674673,82279482,15.4,7.3,10.7
1840020477,Lawton,Oklahoma,OK,Comanche,40031,34.6176,-98.4203,93025,441,73501 73507 73505 73503 73502 73506,708.652,49722083,32575748,14.1,0,8.1
1840019840,Missoula,Montana,MT,Missoula,30063,46.875,-114.0214,92895,845,59808 59803 59802 59801 59812,912.637,9481171,13872119,10.1,5.3,6.6
1840002180,Rapid City,South Dakota,SD,Pennington,46103,44.0716,-103.2204,92664,546,57702 57703 57701,340.583,2758069,11388458,11.1,2.6,5
1840003873,Suffolk,Virginia,VA,Suffolk,51800,36.6953,-76.6398,92108,89,23433 23432 23437 23436 23435 23434 23438 23439,644.845,96500538,6299319,12.9,0.2,6
1840017286,Mount Pleasant,South Carolina,SC,Charleston,45019,32.8538,-79.8204,91684,717,29466 29464 29465,513.861,91547963,6980834,8.7,1.8,7
1840019214,Carson,California,CA,Los Angeles,6037,33.8374,-118.2559,91394,1883,90248 90810 90747 90746 90745 90224 90749 90895,453.118,110674673,82279482,12.3,6,10.7
1840020294,Livermore,California,CA,Alameda,6001,37.6862,-121.7608,90923,1288,94550 94551,453.118,110674673,82279482,10.4,4.3,10.5
1840021969,Westminster,California,CA,Orange,6059,33.7523,-117.9938,90643,3486,92683 92684 92685,453.118,110674673,82279482,13.8,5.7,10.7
1840021866,Santa Monica,California,CA,Los Angeles,6037,34.0232,-118.4813,90401,4147,90401 90402 90403 90404 90405 90406 90407 90408 90409 90410 90411,453.118,110674673,82279482,9.3,8.6,10.7
1840000497,Fall River,Massachusetts,MA,Bristol,25005,41.7137,-71.1014,89541,1044,02724 02723 02720 02721 02790 02747 02722,879.901,14202265,3992900,16.8,3.6,6.3
1840013864,Albany,Georgia,GA,Dougherty,13095,31.5776,-84.1762,89217,505,31721 31701 31707 31705 31702 31703 31706 31708,723.513,105671813,13921563,16.3,2.7,6.9
1840015150,Miami Beach,Florida,FL,Miami-Dade,12086,25.8171,-80.1396,88885,4461,33140 33141 33139 33109 33119 33239,842.169,238451609,12328825,11.5,8.2,7
1840004839,Norwalk,Connecticut,CT,Fairfield,9001,41.1144,-73.4215,88816,1498,06854 06855 06856 06850 06851 06853 06852 06857 06858,529.766,39265173,1925399,10.6,6.3,7.9
1840021538,San Leandro,California,CA,Alameda,6001,37.7071,-122.1601,88815,2570,94578 94579 94577 94622,453.118,110674673,82279482,12.4,7.7,10.5
1840008571,O'Fallon,Missouri,MO,St. Charles,29183,38.785,-90.7175,88673,1149,63367 63366 63368,1618.42,66442664,5428458,10.5,0,7.9
1840000433,Newton,Massachusetts,MA,Middlesex,25017,42.3316,-71.2085,88414,1914,02464 02467 02466 02461 02462 02468 02465 02460 02459 02458 02456 02495,879.901,14202265,3992900,8.4,8.1,5.9
1840008365,Muncie,Indiana,IN,Delaware,18035,40.1989,-85.395,87879,958,47306 47305 47303 47304 47302 47307,1549.45,82568218,7388006,15,4.9,8
1840018845,Citrus Heights,California,CA,Sacramento,6067,38.6948,-121.288,87796,2381,95621 95610 95611,453.118,110674673,82279482,12.9,4.5,11.5
1840007269,Decatur,Illinois,IL,Macon,17115,39.8556,-88.9337,87236,645,62522 62523 62521 62526 62535 62524 62525,556.444,156507019,16830687,15.2,4,7.1
1840019569,Bryan,Texas,TX,Brazos,48041,30.6657,-96.3668,86276,726,77808 77803 77802 77801 77807 77805 77806,857.519,369966928,103399309,12.7,2.3,8.3
1840010113,Waukegan,Illinois,IL,Lake,17097,42.3697,-87.8716,86075,1370,60087 60085 60048 60079,556.444,156507019,16830687,14.1,5.1,8.1
1840020486,Hawthorne,California,CA,Los Angeles,6037,33.9146,-118.3476,86068,5463,90250 90251 90310,453.118,110674673,82279482,13.5,7.3,10.7
1840020304,Redwood City,California,CA,San Mateo,6081,37.5026,-122.2252,85925,1721,94065 94062 94063 94061,453.118,110674673,82279482,10.9,5.7,10.7
1840014795,Hoover,Alabama,AL,Jefferson,1073,33.3754,-86.8064,85768,691,35216 35244 35242 35080 35226 35236 35260,721.058,119834631,17007402,9.9,0,8.8
1840020591,Lake Forest,California,CA,Orange,6059,33.6606,-117.6712,85531,1985,92610 92679 92630 92609,453.118,110674673,82279482,10.5,3.1,10.7
1840020241,Napa,California,CA,Napa,6055,38.2976,-122.3011,85239,1679,94558 94559 94581,453.118,110674673,82279482,12.5,4.6,10.7
1840021878,Whittier,California,CA,Los Angeles,6037,33.9678,-118.0188,85098,2242,90603 90602 90601 90606 90605 90607 90608 90609,453.118,110674673,82279482,11.9,3,10.7
1840003511,Clifton,New Jersey,NJ,Passaic,34031,40.8631,-74.1575,85052,2913,07014 07013 07012 07011 07015,492.293,58578058,2528400,12.4,7.5,7.6
1840015114,Largo,Florida,FL,Pinellas,12103,27.9088,-82.7711,84948,1773,33756 33771 33760 33764 33770 33773 33778 33774 33779,842.169,238451609,12328825,15.3,5.4,8.2
1840006747,Bloomington,Minnesota,MN,Hennepin,27053,44.8306,-93.3151,84943,945,55425 55420 55431 55437 55438,770.366,40636378,15864248,9.5,5.1,7.3
1840014742,Johns Creek,Georgia,GA,Fulton,13121,34.0333,-84.2027,84579,1059,30022 30097 30005,723.513,105671813,13921563,7.9,0.6,7.7
1840020581,Newport Beach,California,CA,Orange,6059,33.6151,-117.8669,84534,1370,92662 92663 92660 92661 92625 92657 92658 92659,453.118,110674673,82279482,9.4,3.9,10.7
1840021026,Mission,Texas,TX,Hidalgo,48215,26.2041,-98.3251,84331,916,78574 78572,857.519,369966928,103399309,14.8,1,8
1840020329,Milpitas,California,CA,Santa Clara,6085,37.4339,-121.8921,84196,2381,95035,453.118,110674673,82279482,9.4,6.7,10.5
1840002434,Troy,Michigan,MI,Oakland,26125,42.5818,-83.1457,84092,970,48098 48083 48085 48084 48007 48099,938.031,96709974,9914747,10.5,2,9.1
1840019115,Chino Hills,California,CA,San Bernardino,6071,33.9508,-117.7253,83853,724,91709,453.118,110674673,82279482,10.2,2.3,10.7
1840019222,Alhambra,California,CA,Los Angeles,6037,34.084,-118.1355,83750,4237,91803 91801 91802 91804 91896 91899,453.118,110674673,82279482,12.1,7.2,12
1840015960,Melbourne,Florida,FL,Brevard,12009,28.1085,-80.6627,83029,727,32901 32903 32934 32935 32904 32912 32919 32941,842.169,238451609,12328825,15.4,2.8,7.1
1840020332,Mountain View,California,CA,Santa Clara,6085,37.4,-122.0796,82739,2664,94040 94041 94043 94039 94042,453.118,110674673,82279482,8.7,4.6,10.7
1840019324,Buena Park,California,CA,Orange,6059,33.8572,-118.0046,81788,3002,90621 90620 90622 90624,453.118,110674673,82279482,12.6,5.8,10.7
1840020298,Pleasanton,California,CA,Alameda,6001,37.6663,-121.8805,81777,1307,94566 94588,453.118,110674673,82279482,9,4.9,10.5
1840001847,Westland,Michigan,MI,Wayne,26163,42.3192,-83.3805,81511,1540,48185 48186,938.031,96709974,9914747,14.7,2.7,8.2
1840018416,Auburn,Washington,WA,King,53033,47.3039,-122.2108,81464,1063,98001 98002 98092,213.274,28922609,87156565,12.4,4,9.1
1840003287,Cranston,Rhode Island,RI,Providence,44007,41.7658,-71.4857,81456,1109,02905 02831 02920 02910 02921 02823,827.559,8276844,616897,12.7,4.9,6.3
1840003123,Somerville,Massachusetts,MA,Middlesex,25017,42.3908,-71.1013,81360,7619,02144 02145 02143,879.901,14202265,3992900,8.6,8.9,5.9
1840020246,Folsom,California,CA,Sacramento,6067,38.6668,-121.1422,81328,1126,95630 95671 95763,453.118,110674673,82279482,9.4,3,11.5
1840015336,Springdale,Arkansas,AR,Washington,5143,36.1899,-94.1574,81125,668,72764 72762 72765 72766,951.287,48839978,5801281,14.6,2.8,8
1840015136,Deerfield Beach,Florida,FL,Broward,12011,26.305,-80.1277,81066,2093,33442 33441 33064 33443,842.169,238451609,12328825,15.6,5.2,8.2
1840003344,Warwick,Rhode Island,RI,Kent,44003,41.7062,-71.4334,81004,893,02818 02886 02889 02888 02887,827.559,8276844,616897,13,4,6.3
1840009186,Cicero,Illinois,IL,Cook,17031,41.8445,-87.7593,80796,5318,60804,556.444,156507019,16830687,13.6,8.3,7.2
1840002442,Farmington Hills,Michigan,MI,Oakland,26125,42.486,-83.3771,80612,935,48336 48335 48334 48331,938.031,96709974,9914747,11.6,2.7,7.8
1840004023,Brooklyn Park,Minnesota,MN,Hennepin,27053,45.1112,-93.3505,80389,1190,55444 55429 55428 55443 55445,770.366,40636378,15864248,9.9,4.3,7.3
1840000408,Lawrence,Massachusetts,MA,Essex,25009,42.7003,-71.1626,80028,4458,01843 01840 01841 01842,879.901,14202265,3992900,15.6,4.9,6.5
1840008929,Plymouth,Minnesota,MN,Hennepin,27053,45.0225,-93.4618,79768,941,55442 55441 55447 55446,770.366,40636378,15864248,7.9,2.8,7.3
1840018713,Cheyenne,Wyoming,WY,Laramie,56021,41.1351,-104.79,79484,771,82009 82007 82001 82002 82003,1990.11,35246993,6763997,11.8,2.8,3.7
1840021967,Tustin,California,CA,Orange,6059,33.7309,-117.8106,79348,2755,92780 92782 92606 92623 92781,453.118,110674673,82279482,11,4.8,12
1840020515,Lakewood,California,CA,Los Angeles,6037,33.8471,-118.1221,79307,3253,90715 90712 90713 90711 90714,453.118,110674673,82279482,11.1,6.7,10.7
1840020557,Perris,California,CA,Riverside,6065,33.7899,-117.2233,79291,970,92570 92571 92585 92572 92599,453.118,110674673,82279482,15,3.8,10.6
1840009549,St. Joseph,Missouri,MO,Buchanan,29021,39.7599,-94.821,79161,656,64503 64501 64507 64504 64506 64505 64502 64508,1618.42,66442664,5428458,15.2,3.6,7.9
1840021030,Pharr,Texas,TX,Hidalgo,48215,26.1685,-98.1904,79112,1292,78577,857.519,369966928,103399309,16.4,0.8,8.1
1840020152,Loveland,Colorado,CO,Larimer,8069,40.4166,-105.0623,78877,885,80538 80537 80539,1219.24,37218614,16573573,10,2.2,8.1
1840014208,Boynton Beach,Florida,FL,Palm Beach,12099,26.5281,-80.0811,78679,1880,33426 33436 33435 33474,842.169,238451609,12328825,14.8,5.1,7
1840000782,New Rochelle,New York,NY,Westchester,36119,40.9305,-73.7836,78557,2930,10804 10801 10805 10802,416.695,91870655,37541300,11,8,7
1840014507,Jonesboro,Arkansas,AR,Craighead,5031,35.8212,-90.6791,78394,377,72467 72404 72401 72402 72403 72405,951.287,48839978,5801281,14.3,2,8.2
1840003406,Parma,Ohio,OH,Cuyahoga,39035,41.3843,-81.7286,78103,1506,44134 44130 44129,1253.28,117491996,3500737,12.7,7.1,8.7
1840020145,Layton,Utah,UT,Davis,49011,41.0769,-111.9621,78014,1339,84041 84040,1565.76,32442621,4644687,10.4,5.3,7.8
1840018913,Alameda,California,CA,Alameda,6001,37.767,-122.2672,77624,2868,94502 94501,453.118,110674673,82279482,10.3,7.4,10.5
